stop_id,name,district,ridership,dispatch_interval,dispatch_half,cai_normalized,lat,lon,pm25,pm10,o3,no2,so2,co,pm25_index,pm10_index,o3_index,no2_index,so2_index,co_index,cai,cai_grade,main_pollutant,priority_v1,priority_v2,pollution_exposure,priority_v4
100000001,종로2가사거리(00032),종로구,175792,15.0,7.5,0.6741,37.569808,126.987752,19.1508,30.682,0.0336,0.0187,0.0028,0.4026,60.4,50.7,53.0,31.1,7.1,10.1,60.4,보통,초미세먼지,0.3644272536931552,0.29932606572491793,0.011174720881918388,0.36231270443178626
100000002,창경궁.서울대학교병원(00026),종로구,929152,10.6111111111111,5.30555555555555,0.7037,37.579433,126.996522,19.3356,31.6841,0.0335,0.0189,0.0028,0.4082,60.8,51.7,52.9,31.5,7.0,10.2,60.8,보통,초미세먼지,0.4008806873824861,0.3809969569996552,0.04361904563975463,0.42800126930342786
100000003,명륜3가.성대입구(00025),종로구,1463867,10.6111111111111,5.30555555555555,0.6741,37.582581,126.998251,19.1536,31.6759,0.0334,0.0187,0.0028,0.4097,60.4,51.7,52.8,31.1,7.0,10.2,60.4,보통,초미세먼지,0.43582702833322345,0.4393423943516871,0.06582771812080483,0.46993687844431264
100000004,종로2가.삼일교(00029),종로구,301642,12.1666666666666,6.08333333333333,0.6741,37.56857927,126.9876131,19.1479,30.5826,0.0337,0.0187,0.0029,0.4017,60.4,50.6,53.1,31.1,7.1,10.0,60.4,보통,초미세먼지,0.351365612807516,0.3009836043964592,0.015552841262353276,0.3608054020356859
100000005,혜화동로터리.여운형활동터(00024),종로구,664591,10.7647058823529,5.38235294117647,0.6296,37.586243,127.001744,18.9101,31.6732,0.0332,0.0184,0.0028,0.4121,59.8,51.7,52.6,30.6,7.0,10.3,59.8,보통,초미세먼지,0.35529226240522255,0.32627717356426084,0.02831916706155579,0.3725271854745024
100000006,경기상고(00013),종로구,175831,12.75,6.375,0.4444,37.58755022,126.9693635,17.9343,30.393,0.0336,0.0168,0.003,0.4381,57.3,50.4,53.0,28.0,7.6,11.0,57.3,보통,초미세먼지,0.26913731302073424,0.21919208064221252,0.0062641450708491005,0.25921477562488116
100000007,신교동(00014),종로구,488558,11.8571428571428,5.92857142857142,0.4963,37.58329552,126.9702627,18.2194,30.4523,0.0336,0.0173,0.003,0.4275,58.0,50.5,53.0,28.8,7.4,10.7,58.0,보통,초미세먼지,0.30519536174393586,0.26960521192807324,0.01807490027926173,0.3069487198070089
100000008,경기상고(00035),종로구,65016,13.8,6.9,0.4519,37.58719079,126.9697701,17.9732,30.4167,0.0336,0.0168,0.003,0.4366,57.4,50.4,53.0,28.1,7.6,10.9,57.4,보통,초미세먼지,0.2710672986997575,0.2127305776792658,0.002548790231014538,0.256280758439709
100000009,경복고교(00021),종로구,142593,10.6666666666666,5.33333333333333,0.4815,37.58516,126.970884,18.1364,30.4773,0.0336,0.0171,0.003,0.4304,57.8,50.5,53.0,28.5,7.5,10.8,57.8,보통,초미세먼지,0.2613356807522887,0.21570722483213678,0.004604104922600844,0.26026948356941315
100000010,청운중학교(00020),종로구,23235,10.6666666666666,5.33333333333333,0.4741,37.587809,126.972673,18.076,30.5449,0.0335,0.017,0.003,0.432,57.7,50.5,52.9,28.4,7.5,10.8,57.7,보통,초미세먼지,0.24886127147209317,0.1984770923933249,0.0007386799313273406,0.24530019243317852
100000011,자하문고개.윤동주문학관(00019),종로구,206887,10.6666666666666,5.33333333333333,0.3852,37.59218662,126.9671262,17.611,30.2,0.0338,0.0162,0.0031,0.4509,56.5,50.2,53.1,27.1,7.8,11.3,56.5,보통,초미세먼지,0.23462640788019395,0.1949025747832539,0.005344046089904113,0.22821835612289942
100000012,자하문고개.윤동주문학관(00035),종로구,27185,10.6666666666666,5.33333333333333,0.3852,37.59233532,126.9671907,17.6093,30.2033,0.0338,0.0162,0.0031,0.4509,56.5,50.2,53.1,27.1,7.8,11.3,56.5,보통,초미세먼지,0.21956275354203134,0.17230709327600996,0.0007022089012554839,0.2101419709171043
100000013,청운중학교(00034),종로구,40879,10.6666666666666,5.33333333333333,0.4667,37.588421,126.972266,18.0286,30.524,0.0335,0.0169,0.003,0.4337,57.6,50.5,53.0,28.2,7.5,10.8,57.6,보통,초미세먼지,0.24787115714485827,0.198473402383954,0.0012793060748211291,0.24411205524049662
100000014,경복고교(00033),종로구,92405,10.6666666666666,5.33333333333333,0.4889,37.585067,126.971404,18.1643,30.4971,0.0336,0.0172,0.003,0.4294,57.9,50.5,53.0,28.6,7.4,10.7,57.9,보통,초미세먼지,0.25959776997807144,0.21161887718932942,0.0030295146449214466,0.2581839906403524
100000015,통인시장종로구보건소(00015),종로구,412526,11.8571428571428,5.92857142857142,0.5407,37.5803257,126.97105,18.4345,30.4201,0.0336,0.0176,0.0029,0.4197,58.6,50.4,53.0,29.3,7.4,10.5,58.6,보통,초미세먼지,0.3136367373836766,0.2733783864987953,0.016628733147863135,0.3170783705746977
100000016,통인시장종로구보건소(00031),종로구,198987,10.8571428571428,5.42857142857142,0.5407,37.58051321,126.9713851,18.4348,30.4327,0.0336,0.0176,0.0029,0.4197,58.6,50.4,53.0,29.3,7.4,10.5,58.6,보통,초미세먼지,0.2874033379202116,0.24152828730359796,0.007344598212398381,0.29059829121853975
100000017,효자동(00032),종로구,130394,10.8571428571428,5.42857142857142,0.5037,37.58309104,126.970621,18.2468,30.462,0.0336,0.0173,0.003,0.4265,58.1,50.5,53.0,28.8,7.4,10.7,58.1,보통,초미세먼지,0.26930779946268674,0.22179238702471807,0.00448318849169043,0.2688836450695099
100000018,사직단.어린이도서관(00017),종로구,393641,11.5714285714285,5.78571428571428,0.5852,37.57513553,126.9679907,18.6637,30.1611,0.0337,0.018,0.0029,0.411,59.2,50.2,53.1,29.9,7.3,10.3,59.2,보통,초미세먼지,0.32448755059061785,0.2829085745631754,0.016757889496661474,0.33152791785159863
100000019,경복궁역1번출구(00016),종로구,1156136,13.5714285714285,6.78571428571428,0.5926,37.576162,126.971415,18.7083,30.2012,0.0337,0.018,0.0029,0.4099,59.3,50.2,53.1,30.0,7.3,10.2,59.3,보통,초미세먼지,0.40754006580962443,0.3910058659102039,0.05845604148635727,0.4211909361144065
100000020,경복궁역2번출구(00006),종로구,556169,11.625,5.8125,0.5852,37.57704014,126.9721994,18.6759,30.2698,0.0337,0.018,0.0029,0.4112,59.2,50.3,53.1,30.0,7.3,10.3,59.2,보통,초미세먼지,0.33855801012593617,0.3036124781518671,0.023786566449773155,0.34814461215112336
100000021,경복궁역3번출구(00030),종로구,1400499,10.8571428571428,5.42857142857142,0.5778,37.57767139,126.9722829,18.6395,30.3134,0.0337,0.0179,0.0029,0.4126,59.1,50.3,53.1,29.9,7.3,10.3,59.1,보통,초미세먼지,0.40046665753285354,0.40371585931515347,0.055232904747857914,0.42627427475371016
100000022,경복궁(00030),종로구,406044,14.2222222222222,7.11111111111111,0.6222,37.57557679,126.9787471,18.8853,30.3091,0.0337,0.0183,0.0029,0.4056,59.7,50.3,53.1,30.5,7.2,10.1,59.7,보통,초미세먼지,0.3599628674295537,0.3088331900332194,0.022590444138704018,0.36084432980435344
100000023,광화문역2번출구.KT광화문지사(00013),종로구,1823771,12.5833333333333,6.29166666666666,0.6519,37.57232093,126.9774163,19.022,29.8545,0.0339,0.0185,0.0029,0.3999,60.1,49.8,53.3,30.8,7.3,10.0,60.1,보통,초미세먼지,0.47502402766068946,0.4877906711206639,0.0940488749679781,0.5071121665261609
100000025,광화문역6번출구(00033),종로구,362334,13.6,6.8,0.6667,37.57004483,126.9764072,19.12,29.4939,0.0341,0.0186,0.0029,0.3958,60.3,49.2,53.4,31.0,7.3,9.9,60.3,보통,초미세먼지,0.3659284736697881,0.3135593771713488,0.020653584317678116,0.3711141684037457
100000028,서울역사박물관.강북삼성병원(00036),종로구,352792,13.0,6.5,0.6519,37.570023,126.971248,19.0536,29.571,0.0341,0.0185,0.0029,0.3976,60.1,49.3,53.4,30.9,7.3,9.9,60.1,보통,초미세먼지,0.35519033678959006,0.3049151348140146,0.018795318026547082,0.36122840414750806
100000029,새문안교회(00044),종로구,67129,11.0,5.5,0.6593,37.57033689,126.9728386,19.0733,29.5468,0.0341,0.0186,0.0029,0.3971,60.2,49.2,53.4,30.9,7.3,9.9,60.2,보통,초미세먼지,0.3170468916383921,0.2612184856057363,0.003060538134656024,0.3254562699660706
100000030,광화문역7번출구(00036),종로구,68291,22.5,11.25,0.6667,37.570365,126.975837,19.1047,29.5279,0.0341,0.0186,0.0029,0.3963,60.3,49.2,53.4,31.0,7.3,9.9,60.3,보통,초미세먼지,0.41544676629189015,0.32108681610450185,0.006440112078376402,0.3860361195502681
100000031,세종문화회관(00007),종로구,720944,13.25,6.625,0.637,37.573648,126.976997,18.9562,30.0145,0.0338,0.0184,0.0029,0.4023,59.9,50.0,53.2,30.7,7.3,10.1,59.9,보통,초미세먼지,0.3831960148266697,0.3480116148325971,0.03825786999653083,0.3935852177920036
100000032,서울경찰청.경복궁역(00029),종로구,538073,13.25,6.625,0.5926,37.57574466,126.9714843,18.7362,30.1678,0.0337,0.0181,0.0029,0.409,59.3,50.2,53.1,30.1,7.3,10.2,59.3,보통,초미세먼지,0.35305190188231733,0.31168433430495757,0.026561462932892806,0.35741228225878086
100000033,사직단(00028),종로구,221946,13.25,6.625,0.5852,37.57485535,126.968189,18.6885,30.1389,0.0337,0.018,0.0029,0.4101,59.2,50.1,53.1,30.0,7.3,10.3,59.2,보통,초미세먼지,0.32408318424458593,0.26971273932984174,0.010819201709531108,0.32264982109350315
100000034,광화문역6번출구.광화문빌딩(00039),종로구,75093,23.6666666666666,11.8333333333333,0.6741,37.56950355,126.9768637,19.1416,29.4308,0.0341,0.0187,0.0029,0.395,60.4,49.1,53.4,31.1,7.3,9.9,60.4,보통,초미세먼지,0.4282083070458114,0.3299976457539029,0.007531524045867157,0.3955166351216408
100000035,덕성여중고(00034),종로구,503107,14.6,7.3,0.6296,37.575768,126.981972,18.9255,30.5253,0.0336,0.0184,0.0029,0.406,59.8,50.5,53.0,30.6,7.2,10.2,59.8,보통,초미세먼지,0.3737165298346404,0.32514886882603466,0.029076161148888117,0.37545983580156855
100000036,안국역.서울공예박물관(00014),종로구,337409,15.6,7.8,0.637,37.57606956,126.9839958,18.9553,30.7039,0.0336,0.0184,0.0029,0.4066,59.9,50.7,53.0,30.7,7.1,10.2,59.9,보통,초미세먼지,0.37062924038943174,0.31153645317674017,0.021080681079721445,0.36675508846731814
100000037,국민은행세검정지점(00021),종로구,135426,12.0,6.0,0.3037,37.60466298,126.960888,17.1403,30.2569,0.0335,0.0156,0.0031,0.4569,55.4,50.3,52.9,26.0,7.8,11.4,55.4,보통,초미세먼지,0.21258675347735512,0.16813938947529194,0.003102930724139612,0.19510410417282614
100000038,세검정초등학교(00009),종로구,460457,9.14285714285714,4.57142857142857,0.3037,37.60250228,126.9612198,17.1722,30.1181,0.0336,0.0156,0.0032,0.4607,55.4,50.1,53.0,26.0,7.9,11.5,55.4,보통,초미세먼지,0.21602319595194241,0.1947226246157443,0.008038218292162525,0.21351354942804518
100000039,세검정.상명대(00018),종로구,169414,8.33333333333333,4.16666666666666,0.2889,37.600477,126.958292,17.0767,29.8076,0.034,0.0154,0.0032,0.4714,55.2,49.7,53.3,25.6,8.1,11.8,55.2,보통,초미세먼지,0.1799419957965859,0.1496352159171011,0.0025641154961942593,0.1742637282892365
100000040,상명대입구.석파랑(00019),종로구,64916,11.3333333333333,5.66666666666666,0.2889,37.59941335,126.9585702,17.0901,29.7343,0.0341,0.0154,0.0033,0.4735,55.2,49.6,53.4,25.6,8.2,11.8,55.2,보통,초미세먼지,0.19618237291520826,0.15149578159503468,0.0013362230117303611,0.17875218083158337
100000041,하림각(00011),종로구,253574,12.25,6.125,0.3111,37.59813307,126.9617068,17.2182,29.877,0.034,0.0156,0.0032,0.4672,55.5,49.8,53.3,26.0,8.1,11.7,55.5,보통,초미세먼지,0.2270430669373457,0.18646737818379622,0.0060756818798382,0.21120168032481482
100000042,자하문터널입구.석파정(00012),종로구,265634,11.8571428571428,5.92857142857142,0.3333,37.59559351,126.9636435,17.3371,29.9458,0.0339,0.0158,0.0032,0.4632,55.8,49.9,53.3,26.3,8.0,11.6,55.8,보통,초미세먼지,0.23218760332645935,0.19268616689445106,0.006600565634583704,0.21933940970603702
100000043,부암동주민센터.무계원(00018),종로구,176288,10.6666666666666,5.33333333333333,0.3556,37.59276708,126.9642222,17.4317,29.979,0.0339,0.0159,0.0032,0.4604,56.1,50.0,53.3,26.5,8.0,11.5,56.1,보통,초미세먼지,0.22218488064624733,0.18216620985825993,0.004203370165714468,0.21328852344216354
100000044,부암동주민센터.무계원(00036),종로구,75784,10.6666666666666,5.33333333333333,0.363,37.59278617,126.9651419,17.4822,30.0513,0.0339,0.016,0.0032,0.4575,56.2,50.1,53.2,26.7,7.9,11.4,56.2,보통,초미세먼지,0.21622919359976275,0.1717511978070515,0.0018446214465447119,0.20614169898638202
100000045,자하문터널입구.석파정(00036),종로구,123008,12.625,6.3125,0.3407,37.59555757,126.9639776,17.3548,29.9719,0.0339,0.0158,0.0032,0.4622,55.9,50.0,53.3,26.3,8.0,11.6,55.9,보통,초미세먼지,0.22909981770019017,0.18081407840213712,0.003326806194994652,0.2117947812402282
100000046,하림각(00037),종로구,136861,12.625,6.3125,0.3185,37.59814765,126.9622153,17.2405,29.9157,0.0339,0.0156,0.0032,0.4657,55.6,49.9,53.3,26.0,8.0,11.6,55.6,보통,초미세먼지,0.22285364836217866,0.17588926883956424,0.0034600667496504337,0.2042993780346144
100000047,상명대입구.세검정교회(00039),종로구,74875,11.4,5.7,0.2963,37.59961633,126.9592406,17.1132,29.7943,0.034,0.0154,0.0033,0.4713,55.3,49.7,53.3,25.7,8.1,11.8,55.3,보통,초미세먼지,0.2000418848848776,0.15530356806805712,0.0015900347058150788,0.18305026186185314
100000048,세검정.상명대(00031),종로구,154089,8.5,4.25,0.2963,37.6006471,126.9591558,17.1059,29.8711,0.0339,0.0154,0.0032,0.4691,55.3,49.8,53.3,25.7,8.1,11.7,55.3,보통,초미세먼지,0.18251539091936733,0.15076382711979178,0.002439807036484066,0.17651846910324084
100000049,세검정초등학교(00032),종로구,367051,10.25,5.125,0.3111,37.60226807,126.9614329,17.1823,30.1119,0.0337,0.0156,0.0032,0.4607,55.5,50.1,53.1,26.0,7.9,11.5,55.5,보통,초미세먼지,0.2198886945319097,0.19073581957564226,0.00735875752863481,0.21261643343829165
100000051,국민은행세검정지점(00033),종로구,130665,12.0,6.0,0.3037,37.604846,126.961195,17.1511,30.2789,0.0334,0.0156,0.0031,0.456,55.4,50.3,52.9,26.0,7.8,11.4,55.4,보통,초미세먼지,0.21218765909719242,0.16754074790504792,0.002993844926895148,0.19462519091663094
100000053,승가사입구(00031),종로구,24145,11.0,5.5,0.2444,37.61158441,126.956306,16.8375,30.6618,0.0328,0.0154,0.003,0.4485,54.6,50.7,52.3,25.6,7.5,11.2,54.6,보통,초미세먼지,0.1751721208028485,0.13136929231538375,0.0004081678186978755,0.15520654496341818
100000054,구기동현대빌라(00032),종로구,78213,11.0,5.5,0.2519,37.6100355,126.9564576,16.8617,30.5761,0.0329,0.0154,0.003,0.4509,54.7,50.6,52.4,25.6,7.6,11.3,54.7,보통,초미세먼지,0.1821735470793011,0.1403899502485812,0.0013622457834042761,0.1636082564951613
100000055,구기터널.삼성출판박물관(00056),종로구,187871,12.6666666666666,6.33333333333333,0.2519,37.60860989,126.9562103,16.8695,30.4853,0.033,0.0154,0.003,0.4536,54.7,50.5,52.5,25.6,7.6,11.3,54.7,보통,초미세먼지,0.2052545997026739,0.16251152918364042,0.0037679569457801116,0.18297218630987538
100000056,구기터널.삼성출판박물관(00019),종로구,90309,13.0,6.5,0.2519,37.6083054,126.9564167,16.886,30.4626,0.033,0.0154,0.0031,0.4541,54.7,50.5,52.5,25.6,7.6,11.4,54.7,보통,초미세먼지,0.19985416997836594,0.15191088459717844,0.0018589094208878762,0.1748250039740391
100000057,구기동(00007),종로구,384499,12.6,6.3,0.2741,37.60696445,126.9585298,17.0117,30.3728,0.0332,0.0155,0.0031,0.4551,55.0,50.4,52.7,25.8,7.7,11.4,55.0,보통,초미세먼지,0.22858894048177328,0.19356859590784506,0.008347807189717539,0.21130672857812793
100000058,구기동(00004),종로구,179188,12.6,6.3,0.2815,37.6070088,126.9591017,17.0372,30.3828,0.0332,0.0155,0.0031,0.4544,55.1,50.4,52.7,25.9,7.7,11.4,55.1,보통,초미세먼지,0.2138477283981727,0.1699752963009627,0.00399547106255589,0.19361727407780724
100000059,승가사입구(00029),종로구,5778,11.0,5.5,0.2444,37.61148,126.956482,16.8487,30.6549,0.0328,0.0154,0.003,0.4485,54.6,50.7,52.3,25.6,7.5,11.2,54.6,보통,초미세먼지,0.1736324933127313,0.129059851080208,9.76762748575823e-05,0.15335899197527758
100000060,갑을씨티텔앞(00008),종로구,97265,9.2,4.6,0.3185,37.60437097,126.963535,17.2514,30.3286,0.0335,0.0158,0.0031,0.4531,55.6,50.3,52.9,26.3,7.7,11.3,55.6,보통,초미세먼지,0.19099281742814775,0.1537855224385179,0.0017919166292221728,0.1831913809137773
100000061,평창파출소(00007),종로구,415524,9.2,4.6,0.3407,37.60532237,126.9660433,17.3466,30.4609,0.0334,0.0159,0.003,0.4477,55.9,50.5,52.8,26.5,7.6,11.2,55.9,보통,초미세먼지,0.22507852316283747,0.20046963659610806,0.008189298430751286,0.22409422779540494
100000062,평창동주민센터(00006),종로구,432578,14.3333333333333,7.16666666666666,0.363,37.60660737,126.9695663,17.4735,30.612,0.0333,0.0161,0.003,0.4412,56.2,50.6,52.7,26.8,7.5,11.0,56.2,보통,초미세먼지,0.2766932726326885,0.2349473163564402,0.014148572840427639,0.26036526049255965
100000063,일성아파트(00005),종로구,163340,14.3333333333333,7.16666666666666,0.3778,37.608873,126.972925,17.5702,30.7449,0.0332,0.0162,0.0029,0.4354,56.4,50.7,52.7,27.0,7.4,10.9,56.4,보통,초미세먼지,0.25906246784060144,0.20553814620534672,0.005560512917077211,0.23920829474205518
100000064,롯데아파트(00004),종로구,270470,14.3333333333333,7.16666666666666,0.3926,37.61039,126.976317,17.656,30.828,0.0332,0.0163,0.0029,0.4312,56.6,50.8,52.6,27.2,7.3,10.8,56.6,보통,초미세먼지,0.27298099169230033,0.223452969019932,0.009568571297226682,0.2559105233640938
100000065,롯데아파트(00038),종로구,85287,10.6666666666666,5.33333333333333,0.4,37.610248,126.976652,17.6663,30.8315,0.0332,0.0163,0.0029,0.431,56.7,50.8,52.6,27.2,7.3,10.8,56.7,보통,초미세먼지,0.22937146868324598,0.18405720302486894,0.0022877588675275745,0.2219124290865619
100000066,벽산평창힐스아파트(00037),종로구,44375,10.6666666666666,5.33333333333333,0.3778,37.60819,126.972797,17.5724,30.7291,0.0332,0.0162,0.0029,0.436,56.4,50.7,52.7,27.1,7.4,10.9,56.4,보통,초미세먼지,0.2185345823257828,0.17224631793311862,0.001124196403314764,0.20890816545760604
100000067,예능교회(00036),종로구,112938,10.6666666666666,5.33333333333333,0.363,37.606517,126.97,17.4904,30.6214,0.0333,0.0161,0.003,0.4407,56.2,50.6,52.7,26.9,7.5,11.0,56.2,보통,초미세먼지,0.219343655393622,0.17642289049784038,0.002748968871131989,0.20987905313901312
100000068,서울예술고등학교.평창동주민센터(00035),종로구,96532,10.6666666666666,5.33333333333333,0.3481,37.60577876,126.9676276,17.4062,30.5289,0.0333,0.016,0.003,0.4448,56.0,50.5,52.8,26.7,7.5,11.1,56.0,보통,초미세먼지,0.21303013858789624,0.16991557825221476,0.0022537348041423693,0.20230283297214224
100000069,화정박물관(00034),종로구,69176,11.2857142857142,5.64285714285714,0.3333,37.60450382,126.9648103,17.3029,30.3816,0.0334,0.0158,0.0031,0.4508,55.8,50.4,52.9,26.4,7.7,11.3,55.8,보통,초미세먼지,0.21095746001425053,0.16512666621185207,0.001636070209236128,0.19672038058852925
100000072,독립문역.서대문형무소역사관(00021),종로구,169730,15.3333333333333,7.66666666666666,0.5407,37.573395,126.959322,18.4216,30.3293,0.0336,0.0176,0.0029,0.4183,58.6,50.3,53.0,29.3,7.4,10.5,58.6,보통,초미세먼지,0.3222524353498352,0.26023050487660476,0.008847548948981453,0.3100362557531357
100000073,금화초등학교.서울시교육청(00011),종로구,273747,10.5,5.25,0.6296,37.567879,126.964867,18.9033,29.8746,0.0339,0.0183,0.0029,0.4018,59.8,49.8,53.2,30.6,7.3,10.0,59.8,보통,초미세먼지,0.3203235898988895,0.27580945892240827,0.011377910649968915,0.3318883078786674
100000075,독립문(00066),종로구,136893,9.0,4.5,0.5704,37.571342,126.96143,18.6179,30.2173,0.0337,0.0179,0.0029,0.4113,59.0,50.2,53.1,29.8,7.3,10.3,59.0,보통,초미세먼지,0.2765986147366911,0.2333238480309626,0.004417935809428538,0.28691833768402936
100000076,창덕궁.우리소리박물관(00033),종로구,547311,13.5,6.75,0.6519,37.57754057,126.9885394,19.0516,31.1432,0.0335,0.0185,0.0028,0.4081,60.1,51.1,52.9,30.9,7.1,10.2,60.1,보통,초미세먼지,0.3756627038836591,0.33187368545511814,0.030279977155807516,0.3832952446603909
100000077,서린동.SK서린빌딩(00030),종로구,92358,10.0,5.0,0.6667,37.569263,126.980095,19.1296,29.6076,0.0341,0.0186,0.0029,0.3962,60.3,49.3,53.4,31.1,7.3,9.9,60.3,보통,초미세먼지,0.313297533871679,0.2616129674741852,0.0038709891580617443,0.32595704064601483
100000078,청계1가.광교(00035),종로구,14760,11.0,5.5,0.6667,37.56868439,126.9849267,19.1161,30.1715,0.0338,0.0186,0.0029,0.3996,60.3,50.2,53.2,31.1,7.2,10.0,60.3,보통,초미세먼지,0.3151261569105652,0.2568559020325145,0.0006804974119219827,0.32315138829267825
100000079,청계2가.수표교(00033),종로구,18932,11.0,5.5,0.6889,37.568442,126.99082,19.2484,31.0521,0.0336,0.0188,0.0028,0.4037,60.6,51.1,53.0,31.4,7.1,10.1,60.6,보통,초미세먼지,0.3228832853333138,0.26404715022219283,0.0009019387693715368,0.33245994239997656
100000080,청계4가.세운교(00031),종로구,5554,11.0,5.5,0.7556,37.568927,126.996555,19.6062,31.718,0.0336,0.0192,0.0028,0.4055,61.5,51.7,53.0,32.1,7.0,10.1,61.5,보통,초미세먼지,0.343984086715835,0.2823650189626413,0.0002902041763272348,0.35778090405900204
100000081,청계5가.광장시장(00030),종로구,32837,11.0,5.5,0.8074,37.56945128,126.9997974,19.8643,31.9462,0.0338,0.0195,0.0028,0.4058,62.2,51.9,53.1,32.6,6.9,10.1,62.2,보통,초미세먼지,0.36355505518104553,0.30135110129008674,0.0018335281490257118,0.3812660662172546
100000102,원남동(00027),종로구,703110,10.8461538461538,5.42307692307692,0.7704,37.57453251,126.9973383,19.6875,31.8361,0.0337,0.0193,0.0028,0.4063,61.7,51.8,53.1,32.2,7.0,10.2,61.7,보통,초미세먼지,0.40611345962195067,0.3737499615126981,0.0369349316891416,0.43310538231557166
100000103,창덕궁.우리소리박물관(00032),종로구,738787,12.9,6.45,0.6593,37.577272,126.988954,19.0773,31.1709,0.0335,0.0186,0.0028,0.4079,60.2,51.2,52.9,30.9,7.1,10.2,60.2,보통,초미세먼지,0.38918245836624327,0.35517183569751287,0.03950061773986956,0.4025189500394919
100000104,안국역6번출구.인사동문화의거리(00017),종로구,1179954,11.8,5.9,0.637,37.57579898,126.9841344,18.9667,30.6971,0.0336,0.0184,0.0029,0.4063,59.9,50.7,53.0,30.7,7.1,10.2,59.9,보통,초미세먼지,0.4095895374980554,0.3984768988396757,0.05576355606923975,0.4325074449976665
100000105,조계사.종로경찰서(00033),종로구,546783,10.7142857142857,5.35714285714285,0.6519,37.57252231,126.9831556,19.04,30.3198,0.0337,0.0185,0.0029,0.4022,60.1,50.3,53.1,30.9,7.2,10.1,60.1,보통,초미세먼지,0.35240415817510184,0.3178787240351396,0.024008544094911415,0.36931356123869374
100000106,조계사.종로경찰서(00019),종로구,419131,10.5,5.25,0.6519,37.57248581,126.9828259,19.038,30.2816,0.0338,0.0185,0.0029,0.402,60.1,50.3,53.1,30.9,7.2,10.1,60.1,보통,초미세먼지,0.33991791966831536,0.30075650913210267,0.018035437446196102,0.35540150360197853
100000107,안국동사거리(00018),종로구,137904,10.6666666666666,5.33333333333333,0.637,37.57461057,126.9827201,18.9761,30.4834,0.0337,0.0184,0.0029,0.4046,59.9,50.5,53.1,30.7,7.2,10.1,59.9,보통,초미세먼지,0.3127944736777422,0.2617843031092059,0.005891270499435007,0.32202003507995736
100000108,효제동.김상옥의거터(00063),종로구,158634,11.2727272727272,5.63636363636363,0.8296,37.5745,127.00223,20.0109,32.0393,0.0339,0.0197,0.0028,0.406,62.5,52.0,53.2,32.8,6.9,10.1,62.5,보통,초미세먼지,0.3837802173220755,0.3251989455117329,0.009327134160265172,0.40417262442285434
100000109,종로5가.효제초등학교(00062),종로구,497185,9.8,4.9,0.8444,37.57287901,127.0021442,20.0791,32.0571,0.0339,0.0198,0.0028,0.4059,62.7,52.1,53.3,33.0,6.9,10.1,62.7,보통,초미세먼지,0.4048250520341339,0.36484868916231183,0.025867465011901736,0.43679006244096064
100000116,종로5가역6번출구(00034),종로구,268087,9.66666666666666,4.83333333333333,0.837,37.5705596,127.0021827,20.0597,32.0492,0.0339,0.0198,0.0028,0.4058,62.6,52.0,53.3,32.9,6.9,10.1,62.6,보통,초미세먼지,0.38204049419711156,0.33315333388825985,0.013637534655232446,0.4101152597032005
100000117,청계5가.마전교(00029),종로구,17697,11.0,5.5,0.837,37.56983511,127.0028494,20.0513,32.0496,0.0339,0.0197,0.0028,0.4058,62.6,52.0,53.2,32.9,6.9,10.1,62.6,보통,초미세먼지,0.37216247658548984,0.30833630747082724,0.001024414472269284,0.3915949719025878
100000118,동대문(00029),종로구,188555,15.75,7.875,0.837,37.57172624,127.0084126,20.048,32.0832,0.0339,0.0197,0.0028,0.4057,62.6,52.1,53.2,32.9,6.9,10.1,62.6,보통,초미세먼지,0.42606810935294065,0.3535697566220035,0.015627948832596553,0.43253173122352884
100000119,충신동(00028),종로구,159870,18.6666666666666,9.33333333333333,0.8444,37.57402235,127.0062788,20.0891,32.0763,0.0339,0.0198,0.0028,0.4058,62.7,52.1,53.3,33.0,6.9,10.1,62.7,보통,초미세먼지,0.45043825916612895,0.3667684998603045,0.015843222605948552,0.44719257766602144
100000121,충신동(00037),종로구,90724,20.5,10.25,0.837,37.57446028,127.0063434,20.0583,32.074,0.0339,0.0198,0.0028,0.4058,62.6,52.1,53.2,32.9,6.9,10.1,62.6,보통,초미세먼지,0.4574506860583189,0.3650186216800709,0.009787221567775993,0.4464408232699827
100000122,현대그룹빌딩(00026),종로구,231968,14.8571428571428,7.42857142857142,0.8,37.57591041,127.0008066,19.8372,31.9718,0.0338,0.0195,0.0028,0.4063,62.1,52.0,53.1,32.5,6.9,10.2,62.1,보통,초미세먼지,0.40992108129273613,0.3434530505105329,0.01733373124217792,0.41761958326556925
100000123,방송통신대.이화장(00064),종로구,750985,11.9473684210526,5.97368421052631,0.7704,37.578043,127.002437,19.6949,31.9609,0.0337,0.0193,0.0028,0.4067,61.7,52.0,53.0,32.2,6.9,10.2,61.7,보통,초미세먼지,0.41930340537061633,0.38527577082395564,0.04345520308147718,0.4434272443394765
100000124,혜화역2번출구.마로니에공원(00065),종로구,1058572,11.9473684210526,5.97368421052631,0.7111,37.58111949,127.0022769,19.367,31.8662,0.0334,0.0189,0.0028,0.4081,60.9,51.9,52.9,31.5,6.9,10.2,60.9,보통,초미세먼지,0.4253340289090852,0.40617355798351096,0.05654169419919637,0.45066399258563916
100000125,혜화역3번출구.서울대병원입구(00025),종로구,1060609,13.375,6.6875,0.7111,37.58095597,127.0018482,19.3777,31.8577,0.0334,0.0189,0.0028,0.4081,60.9,51.9,52.9,31.6,6.9,10.2,60.9,보통,초미세먼지,0.4374017117797277,0.41356784544736924,0.06341985687200818,0.4580070541356732
100000126,방송통신대.이화장(00037),종로구,185491,14.6,7.3,0.7778,37.577788,127.001977,19.7096,31.9558,0.0337,0.0193,0.0028,0.4066,61.8,52.0,53.1,32.2,6.9,10.2,61.8,보통,초미세먼지,0.39647484751188555,0.32965671571227284,0.013242498217375642,0.40276981701426273
100000127,현대그룹빌딩(00038),종로구,397516,15.8333333333333,7.91666666666666,0.7926,37.57611936,127.0006951,19.8143,31.9629,0.0337,0.0195,0.0028,0.4063,62.0,52.0,53.1,32.4,6.9,10.2,62.0,보통,초미세먼지,0.42946405084419,0.3669275577477665,0.03136286090915236,0.4361901943463614
100000128,창경궁.서울대학교병원(00033),종로구,322683,8.8,4.4,0.7185,37.57882799,126.9968717,19.3963,31.7178,0.0335,0.019,0.0028,0.4078,61.0,51.7,52.9,31.6,7.0,10.2,61.0,보통,초미세먼지,0.33988864960363796,0.3001292707017532,0.01282730490696083,0.3638663795243655
100000129,이화동(이화장)(00027),종로구,141134,19.6,9.8,0.8148,37.57593729,127.0032708,19.9309,32.0297,0.0338,0.0196,0.0028,0.4061,62.3,52.0,53.2,32.7,6.9,10.2,62.3,보통,초미세먼지,0.446768934543371,0.36019043885209356,0.014170505164033901,0.4381227214520453
100000130,혜화동로터리(00050),종로구,148220,13.0,6.5,0.637,37.58558,127.000687,18.9551,31.6652,0.0332,0.0184,0.0028,0.4116,59.9,51.7,52.7,30.7,7.0,10.3,59.9,보통,초미세먼지,0.33310366452541257,0.2747480893807114,0.007717089520523344,0.33472439743049504
100000131,명륜동2가.성균관대입구(00034),종로구,596826,8.8,4.4,0.6667,37.58341708,126.9993413,19.11,31.6917,0.0333,0.0186,0.0028,0.4101,60.3,51.7,52.8,31.0,7.0,10.3,60.3,보통,초미세먼지,0.3455849406710703,0.31904407767327225,0.022012929450826516,0.3707019288052844
100000132,혜화역.서울연극센터(장면총리가옥)(00024),종로구,374305,14.6,7.3,0.6593,37.58403069,127.0014609,19.0873,31.7441,0.0333,0.0186,0.0028,0.4103,60.2,51.7,52.7,31.0,7.0,10.3,60.2,보통,초미세먼지,0.3727961492147098,0.3178423719702128,0.022650271738388874,0.3743553790576518
100000133,혜화역.동성중고(장면총리가옥)(00066),종로구,1251875,12.125,6.0625,0.6519,37.58453294,127.0015562,19.0456,31.7297,0.0332,0.0185,0.0028,0.4106,60.1,51.7,52.7,30.9,7.0,10.3,60.1,보통,초미세먼지,0.4232649739666105,0.4135895905795453,0.062205718655776676,0.4472929687599326
100000135,종로구민회관.창신동두산아파트(00011),종로구,142746,9.0,4.5,0.6889,37.57409268,127.0155555,19.2491,32.5003,0.0332,0.0188,0.0027,0.4027,60.6,52.5,52.6,31.4,6.7,10.1,60.6,보통,초미세먼지,0.3165954196717849,0.2696153517298994,0.0055640923696021385,0.3349145036061419
100000139,동묘앞역6번출구(00028),종로구,82570,9.0,4.5,0.7037,37.57168496,127.0156014,19.3037,32.4306,0.0332,0.0189,0.0027,0.4029,60.8,52.4,52.7,31.5,6.8,10.1,60.8,보통,초미세먼지,0.3164893931417369,0.26649334897186466,0.0032877086559052857,0.3347872717700843
100000140,동묘앞역5번출구(00080),종로구,65925,9.0,4.5,0.6963,37.57192215,127.015945,19.2627,32.4732,0.0332,0.0189,0.0027,0.4026,60.7,52.5,52.6,31.4,6.7,10.1,60.7,보통,초미세먼지,0.312624977785013,0.26217820741826015,0.0025973198058696313,0.3301499733420156
100000142,창신3동주민센터(00009),종로구,103469,9.0,4.5,0.6593,37.578413,127.015178,19.0876,32.5217,0.033,0.0186,0.0027,0.4033,60.2,52.5,52.5,31.1,6.7,10.1,60.2,보통,초미세먼지,0.30342645260774975,0.25578782705977265,0.0038596479536584473,0.3191117431292997
100000143,숭인1동주민센터.창신역4번출구(00021),종로구,381889,8.66666666666666,4.33333333333333,0.6519,37.578625,127.015462,19.0547,32.5511,0.033,0.0186,0.0027,0.4032,60.1,52.6,52.5,31.0,6.7,10.1,60.1,보통,초미세먼지,0.3215183034309664,0.2869070847760793,0.013563658295048327,0.3424886307838264
100000144,동묘앞역.롯데캐슬천지인(00020),종로구,754733,8.66666666666666,4.33333333333333,0.6815,37.57418005,127.0158024,19.2187,32.5319,0.0331,0.0188,0.0027,0.4025,60.5,52.5,52.6,31.3,6.7,10.1,60.5,보통,초미세먼지,0.3626487733531662,0.34267686373345296,0.0280245201982685,0.3918451946904661
100000147,신설동역오거리(00031),종로구,324445,14.875,7.4375,0.5778,37.57569473,127.0228414,18.658,33.6435,0.0325,0.0182,0.0025,0.3937,59.1,53.6,52.1,30.3,6.3,9.8,59.1,보통,초미세먼지,0.3437477703224557,0.2885035999281279,0.01753063261726308,0.33812232438694684
100000150,구기동현대빌라(00028),종로구,17096,11.0,5.5,0.2519,37.609682,126.956622,16.8756,30.5536,0.0329,0.0154,0.003,0.4514,54.7,50.6,52.4,25.6,7.6,11.3,54.7,보통,초미세먼지,0.1770503689166458,0.13270518300459822,0.0002977632096081151,0.15746044269997495
100000151,광장시장(00026),종로구,256087,8.33333333333333,4.16666666666666,0.7778,37.5694708,126.9977438,19.7168,31.8267,0.0337,0.0194,0.0028,0.4057,61.8,51.8,53.1,32.3,7.0,10.1,61.8,보통,초미세먼지,0.35017038770553466,0.30720002600274654,0.010435193612001207,0.37853779857997505
100000153,서울특별시재향군인회관(00016),종로구,71256,7.5,3.75,0.7852,37.57258074,126.9974788,19.7487,31.8575,0.0337,0.0194,0.0028,0.406,61.9,51.9,53.1,32.3,7.0,10.2,61.9,보통,초미세먼지,0.33020148247043907,0.28201518666862146,0.002638113605513857,0.35874177896452697
100000154,서울역사박물관(00032),종로구,45381,10.0,5.0,0.6593,37.56990034,126.9721318,19.0798,29.5175,0.0341,0.0186,0.0029,0.3968,60.2,49.2,53.4,30.9,7.3,9.9,60.2,보통,초미세먼지,0.3068905159652609,0.2534839220960394,0.0018809142382417707,0.3182686191583131
100000155,청계3가.관수교(00032),종로구,7449,11.0,5.5,0.7185,37.56868879,126.9937794,19.4096,31.4364,0.0335,0.019,0.0028,0.4049,61.0,51.4,53.0,31.7,7.0,10.1,61.0,보통,초미세먼지,0.3317972574935352,0.271492182536599,0.0003701411069530748,0.3431567089922422
100000156,청계6가.버들다리(00028),종로구,51933,11.0,5.5,0.8296,37.56993039,127.0080377,20.0094,32.0767,0.0339,0.0197,0.0028,0.4057,62.5,52.1,53.2,32.8,6.9,10.1,62.5,보통,초미세먼지,0.3725631990479334,0.310418872645974,0.002979607403232886,0.39207583885752
100000157,청계7가.맑은내다리(00027),종로구,50382,11.0,5.5,0.7481,37.57004,127.013093,19.5717,32.2096,0.0335,0.0192,0.0027,0.4045,61.4,52.2,52.9,32.0,6.8,10.1,61.4,보통,초미세먼지,0.3452726914876007,0.2857794076017714,0.002606720025107488,0.3593272297851208
100000158,청계8가.영도교(00026),종로구,51739,11.0,5.5,0.6593,37.570895,127.018128,19.0622,32.6671,0.033,0.0186,0.0027,0.401,60.2,52.7,52.5,31.1,6.7,10.0,60.2,보통,초미세먼지,0.3157568133962784,0.25928336824256565,0.002358878912973052,0.3239081760755341
100000159,원남동사거리(00025),종로구,85486,17.0,8.5,0.7704,37.575761,126.998113,19.6815,31.8595,0.0337,0.0193,0.0028,0.4065,61.7,51.9,53.1,32.2,6.9,10.2,61.7,보통,초미세먼지,0.4056227179080791,0.32686000278804445,0.007038533512895538,0.4017472614896949
100000165,숭인2동주민센터(00029),종로구,242160,14.0,7.0,0.6074,37.57427215,127.0204373,18.801,33.2091,0.0327,0.0183,0.0026,0.3972,59.5,53.2,52.3,30.5,6.5,9.9,59.5,보통,초미세먼지,0.33943504529631346,0.2826710864629886,0.012946405980888797,0.3373220543555761
100000169,조계사(00031),종로구,39519,5.0,2.5,0.6519,37.57280034,126.9831609,19.033,30.3491,0.0337,0.0185,0.0029,0.4026,60.1,50.3,53.1,30.9,7.2,10.1,60.1,보통,초미세먼지,0.26226332696881705,0.2255246200828551,0.00080977347852288,0.2897159923625805
100000174,세종문화회관(00032),종로구,167413,12.5,6.25,0.637,37.57336557,126.9770167,18.9701,29.9791,0.0339,0.0184,0.0029,0.4017,59.9,50.0,53.2,30.7,7.3,10.0,59.9,보통,초미세먼지,0.3305458654156587,0.27466139071608064,0.008381129842719338,0.33415503849879047
100000179,이화동(이화장)(00033),종로구,32177,20.5,10.25,0.8074,37.576257,127.002955,19.8924,32.0173,0.0338,0.0196,0.0028,0.4061,62.2,52.0,53.2,32.6,6.9,10.2,62.2,보통,초미세먼지,0.44266639685487297,0.34876811380082795,0.0033483499008867663,0.4286996762258476
100000180,상명대정문(00001),종로구,497096,13.6666666666666,6.83333333333333,0.2667,37.601417,126.955143,16.9729,29.7612,0.0339,0.0152,0.0033,0.4744,54.9,49.6,53.3,25.4,8.2,11.9,54.9,보통,초미세먼지,0.2444472211723047,0.21083749842512378,0.011389647861170703,0.22500333207343237
100000181,이북오도청(00030),종로구,91807,11.0,5.5,0.237,37.612723,126.955973,16.8121,30.7183,0.0327,0.0153,0.003,0.447,54.5,50.7,52.2,25.6,7.4,11.2,54.5,보통,초미세먼지,0.17837480267535652,0.13765479660562735,0.0015049545533591456,0.15904976321042785
100000188,상명대입구.세검정교회(00038),종로구,30080,14.6666666666666,7.33333333333333,0.2963,37.59944351,126.9597922,17.1342,29.8181,0.034,0.0154,0.0032,0.4703,55.3,49.7,53.3,25.7,8.1,11.8,55.3,보통,초미세먼지,0.22350913278250686,0.16600443991450103,0.0008218152022729392,0.19487762600567493
100000189,상명대입구.석파랑(00010),종로구,214701,9.75,4.875,0.2889,37.59957181,126.9581941,17.0769,29.723,0.0341,0.0153,0.0033,0.474,55.2,49.5,53.4,25.5,8.2,11.9,55.2,보통,초미세먼지,0.19554376794412368,0.16241287413840766,0.0038019658856035116,0.18590252153294845
100000190,종로중부새마을금고(00038),종로구,199479,15.25,7.625,0.8519,37.57241749,127.0065911,20.1394,32.081,0.034,0.0198,0.0028,0.4058,62.8,52.1,53.3,33.1,6.9,10.1,62.8,보통,초미세먼지,0.4277554267484474,0.35688776975230074,0.016291827091682202,0.43705651209813695
100000191,신설동역오거리.서울풍물시장(00024),종로구,203011,10.5,5.25,0.5852,37.57425481,127.0231951,18.6656,33.6151,0.0325,0.0182,0.0025,0.3939,59.2,53.6,52.1,30.3,6.4,9.8,59.2,보통,초미세먼지,0.2995792770636618,0.25358187855845543,0.007842253678113106,0.30699513247639404
100000192,청계2가.삼일교(00034),종로구,18225,11.0,5.5,0.6667,37.568344,126.986988,19.1367,30.4698,0.0337,0.0187,0.0029,0.4011,60.3,50.5,53.1,31.1,7.1,10.0,60.3,보통,초미세먼지,0.3154166131229709,0.2572915863511231,0.0008402483287451311,0.32349993574756514
100000193,청계8가.황학교(00025),종로구,67821,11.0,5.5,0.5926,37.57213073,127.022787,18.7277,33.3505,0.0326,0.0183,0.0026,0.3958,59.3,53.4,52.2,30.4,6.4,9.9,59.3,보통,초미세먼지,0.2948826768329042,0.2413054967308378,0.0027794046958121528,0.2988592121994851
100000330,종로1가(00028),종로구,304009,12.6666666666666,6.33333333333333,0.6593,37.57037,126.980129,19.0963,29.7563,0.034,0.0186,0.0029,0.3977,60.2,49.6,53.3,31.0,7.3,9.9,60.2,보통,초미세먼지,0.35079242341174505,0.2993367832657657,0.01596039792926438,0.3576175747607608
100000355,평창동삼성아파트(00039),종로구,51254,10.6666666666666,5.33333333333333,0.4074,37.611179,126.978799,17.7095,30.8699,0.0331,0.0164,0.0029,0.4288,56.8,50.9,52.6,27.3,7.2,10.7,56.8,보통,초미세먼지,0.22898776284738767,0.18200016278960007,0.001400309719989934,0.22145198208353195
100000362,영천시장(00048),종로구,1007864,13.7272727272727,6.86363636363636,0.6,37.56951594,126.9631797,18.7735,30.0614,0.0338,0.0181,0.0029,0.4061,59.4,50.1,53.1,30.2,7.3,10.2,59.4,보통,초미세먼지,0.3988788917922317,0.3753637922338021,0.052188659231490554,0.4100183065143145
100000363,영천시장(00019),종로구,927062,12.5,6.25,0.5926,37.56993913,126.962533,18.7284,30.1168,0.0337,0.0181,0.0029,0.4075,59.3,50.1,53.1,30.1,7.3,10.2,59.3,보통,초미세먼지,0.3794091952755325,0.3568452743947802,0.04317314689518608,0.392791034330639
100000364,동묘앞역2번출구(00019),종로구,70371,8.0,4.0,0.6519,37.573643,127.017524,19.0564,32.7359,0.033,0.0186,0.0027,0.4008,60.1,52.7,52.5,31.0,6.6,10.0,60.1,보통,초미세먼지,0.2898495189068088,0.24440390798984274,0.0023071259680511593,0.30781942268817053
100000365,동대문역.흥인지문(00037),종로구,1189634,15.8333333333333,7.91666666666666,0.7704,37.57215245,127.0124191,19.6648,32.1944,0.0335,0.0193,0.0027,0.4048,61.7,52.2,53.0,32.2,6.9,10.1,61.7,보통,초미세먼지,0.488456526281919,0.45986071534880446,0.09122712488899645,0.5069811648716362
100000366,동묘앞.서울혜화경찰서(00070),종로구,947290,13.8,6.9,0.637,37.57383216,127.0186103,18.9509,32.9019,0.0329,0.0185,0.0026,0.3995,59.9,52.9,52.4,30.8,6.6,10.0,59.9,보통,초미세먼지,0.406752970628455,0.379222048535275,0.052355874272221395,0.419103564754146
100000367,동묘앞.서울혜화경찰서(00036),종로구,1207771,13.8333333333333,6.91666666666666,0.6222,37.57424646,127.0195528,18.8636,33.0683,0.0328,0.0184,0.0026,0.3983,59.7,53.1,52.3,30.7,6.5,10.0,59.7,보통,초미세먼지,0.42392749113423983,0.40769679225691524,0.06535753306266744,0.4395463226944212
100000368,서대문역사거리.적십자병원(00037),종로구,592672,13.5,6.75,0.6519,37.56710815,126.9675878,19.0371,29.6029,0.034,0.0185,0.0029,0.3977,60.1,49.3,53.4,30.9,7.3,9.9,60.1,보통,초미세먼지,0.37946512358089884,0.3375773150009779,0.032789574155985816,0.3878581482970787
100000369,안국역.서울공예박물관(00017),종로구,285349,11.4,5.7,0.637,37.576413,126.984888,18.9664,30.7981,0.0336,0.0184,0.0029,0.407,59.9,50.8,53.0,30.7,7.1,10.2,59.9,보통,초미세먼지,0.33126527201487416,0.28399050061490383,0.01302820498871049,0.340518326417849
100000370,안국역5번출구(00031),종로구,67568,15.5,7.75,0.6444,37.57633293,126.9855365,18.9864,30.8478,0.0335,0.0184,0.0028,0.407,60.0,50.8,53.0,30.7,7.1,10.2,60.0,보통,초미세먼지,0.34964541953626654,0.2793292404155109,0.004243233592709755,0.34207450344351986
100000376,강북삼성병원.경교장(00042),종로구,23439,10.0,5.0,0.6519,37.56814593,126.9686005,19.0459,29.5746,0.034,0.0185,0.0029,0.3975,60.1,49.3,53.4,30.9,7.3,9.9,60.1,보통,초미세먼지,0.302582075628129,0.24850274307182307,0.0009605648201167937,0.31309849075375484
100000379,서울역사박물관.경희궁앞(00033),종로구,857299,15.4615384615384,7.73076923076923,0.6593,37.569515,126.97076,19.0634,29.5418,0.0341,0.0185,0.0029,0.3972,60.2,49.2,53.4,30.9,7.3,9.9,60.2,보통,초미세먼지,0.42046296910839337,0.38288106334919964,0.05493889937022386,0.4272478706223798
100000380,서울역사박물관.경희궁앞(00039),종로구,1227033,14.7,7.35,0.6593,37.569135,126.97038,19.0685,29.5265,0.0341,0.0186,0.0029,0.397,60.2,49.2,53.4,30.9,7.3,9.9,60.2,보통,초미세먼지,0.4451100439022447,0.4255632140015152,0.0747598652635243,0.4606320526826937
100000384,광화문역(00023),종로구,1365879,14.75,7.375,0.6667,37.57014168,126.9763534,19.1159,29.5063,0.0341,0.0186,0.0029,0.396,60.3,49.2,53.4,31.0,7.3,9.9,60.3,보통,초미세먼지,0.45963471600130407,0.4454937406686227,0.08444067249540614,0.47781165920156476
100000385,광화문역(00032),종로구,1246929,13.9411764705882,6.97058823529411,0.6667,37.57023966,126.9778803,19.1108,29.5787,0.0341,0.0186,0.0029,0.3964,60.3,49.3,53.4,31.0,7.3,9.9,60.3,보통,초미세먼지,0.4429234473498102,0.42649301416197033,0.07285990242890172,0.46180225446683115
100000386,종로1가(00024),종로구,1559242,13.5555555555555,6.77777777777777,0.6593,37.57014825,126.9810661,19.0981,29.8178,0.034,0.0186,0.0029,0.398,60.2,49.7,53.3,31.0,7.3,9.9,60.2,보통,초미세먼지,0.46342067435931816,0.4616124930204588,0.08760437148123118,0.48832703145340417
100000387,종로1가(00031),종로구,1311793,13.8333333333333,6.91666666666666,0.6593,37.570271,126.98163,19.0924,29.8937,0.0339,0.0186,0.0029,0.3985,60.2,49.8,53.3,31.0,7.2,10.0,60.2,보통,초미세먼지,0.44499289197252145,0.43188748610693034,0.07521199066424583,0.46482480370035917
100000388,종로2가(00025),종로구,1600318,14.56,7.28,0.6667,37.57017,126.984991,19.1007,30.3111,0.0338,0.0186,0.0029,0.4009,60.3,50.3,53.1,31.0,7.2,10.0,60.3,보통,초미세먼지,0.47770340690467644,0.4740217770236813,0.09765963578216001,0.5004440882856117
100000389,종로2가(00030),종로구,1963820,14.68,7.34,0.6667,37.570238,126.986536,19.1217,30.536,0.0337,0.0186,0.0029,0.402,60.3,50.5,53.1,31.1,7.1,10.1,60.3,보통,초미세먼지,0.509174233491085,0.5203280169032942,0.12083010960467862,0.537609080189302
100000390,종로3가.탑골공원(00065),종로구,1747196,14.4090909090909,7.20454545454545,0.6815,37.57025677,126.989269,19.1994,30.9251,0.0336,0.0187,0.0028,0.4037,60.5,50.9,53.0,31.2,7.1,10.1,60.5,보통,초미세먼지,0.49369626077966605,0.49617991305502107,0.10786261902685551,0.5203900583901448
100000391,종로3가.탑골공원(00029),종로구,1261299,14.6363636363636,7.31818181818181,0.6889,37.57036054,126.9899878,19.2292,31.0286,0.0336,0.0188,0.0028,0.4041,60.6,51.0,53.0,31.3,7.1,10.1,60.6,보통,초미세먼지,0.45732865711913256,0.4384424806281938,0.07995380130671989,0.475612570361141
100000392,종로4가.종묘(00066),종로구,715079,14.4090909090909,7.20454545454545,0.7407,37.570507,126.9947219,19.5154,31.5969,0.0336,0.0191,0.0028,0.4055,61.3,51.6,53.0,31.9,7.0,10.1,61.3,보통,초미세먼지,0.42693136896578016,0.38418072348234034,0.04798389866758981,0.4402721882134817
100000393,종로4가.종묘(00028),종로구,498837,15.1,7.55,0.7481,37.570637,126.995396,19.5687,31.6651,0.0336,0.0192,0.0028,0.4057,61.4,51.7,53.0,32.0,7.0,10.1,61.4,보통,초미세먼지,0.4170314334022931,0.36266752047381,0.035429245649031604,0.4249377200827517
100000394,종로5가.광장시장(00061),종로구,1312748,14.3043478260869,7.15217391304347,0.8074,37.570787,126.999061,19.864,31.9383,0.0338,0.0195,0.0028,0.4058,62.2,51.9,53.1,32.6,6.9,10.1,62.2,보통,초미세먼지,0.4983807823829743,0.4788070833973279,0.09531930144354168,0.5265351997291345
100000395,종로5가.광장시장(00035),종로구,877206,15.6,7.8,0.8148,37.570931,126.999606,19.9091,31.9679,0.0338,0.0196,0.0028,0.4059,62.3,52.0,53.2,32.6,6.9,10.1,62.3,보통,초미세먼지,0.4751373862541664,0.4327431164182868,0.07010093374337535,0.4921648635049998
100000396,종로6가.동대문종합시장(00068),종로구,1104873,15.6,7.8,0.8593,37.57101,127.004464,20.1461,32.0792,0.034,0.0199,0.0028,0.4058,62.9,52.1,53.3,33.1,6.9,10.1,62.9,보통,초미세먼지,0.5090365573488583,0.4747029841714358,0.09311076055183831,0.5328438688186301
100000397,종로6가.동대문종합시장(00023),종로구,799738,15.0625,7.53125,0.8593,37.57112723,127.0057137,20.1479,32.0807,0.034,0.0199,0.0028,0.4058,62.9,52.1,53.3,33.1,6.9,10.1,62.9,보통,초미세먼지,0.47897922145494193,0.433648230330561,0.06507403059179646,0.49946256574593034
100000398,동대문역.흥인지문(00028),종로구,2110014,15.56,7.78,0.7333,37.572449,127.013813,19.498,32.2908,0.0334,0.0191,0.0027,0.4041,61.2,52.3,52.8,31.9,6.8,10.1,61.2,보통,초미세먼지,0.5509846102635072,0.563110248728594,0.15136834057462054,0.5833815323162087
100000413,남인사마당(00022),종로구,65575,8.0,4.0,0.6667,37.57131917,126.9874286,19.135,30.7377,0.0336,0.0187,0.0028,0.4034,60.3,50.7,53.0,31.1,7.1,10.1,60.3,보통,초미세먼지,0.2943857622304489,0.24824531001234,0.002198749336623997,0.31326291467653866
100000414,창덕궁.서울돈화문국악당(00024),종로구,52093,12.5,6.25,0.6741,37.577431,126.991233,19.1754,31.3577,0.0335,0.0187,0.0028,0.4079,60.4,51.4,52.9,31.1,7.0,10.2,60.4,보통,초미세먼지,0.33322475931555756,0.27127232415852154,0.0027595336861260967,0.3373697111786691
100000415,영추문(00017),종로구,55307,8.0,4.0,0.5704,37.57893039,126.9739818,18.6121,30.4182,0.0336,0.0179,0.0029,0.4138,59.0,50.4,53.0,29.8,7.3,10.3,59.0,보통,초미세먼지,0.2614262740309672,0.2180653369723767,0.0015865937520516938,0.27371152883716066
100000416,청와대(00018),종로구,91002,8.0,4.0,0.5259,37.582971,126.973762,18.3746,30.5579,0.0335,0.0175,0.0029,0.422,58.4,50.6,53.0,29.2,7.3,10.5,58.4,보통,초미세먼지,0.24960361924553834,0.20922024368312228,0.0024071557904576523,0.259524343094646
100000417,춘추문(00019),종로구,79623,8.0,4.0,0.563,37.583126,126.979657,18.5561,30.7772,0.0335,0.0178,0.0029,0.4167,58.9,50.8,52.9,29.7,7.2,10.4,58.9,보통,초미세먼지,0.26099544508588846,0.21890057503624,0.0022544833991072063,0.27319453410306616
100000418,경복궁.국립민속박물관(00020),종로구,130603,8.0,4.0,0.5926,37.579407,126.97959,18.7274,30.6375,0.0335,0.0181,0.0029,0.4115,59.3,50.6,53.0,30.1,7.2,10.3,59.3,보통,초미세먼지,0.27514542486385835,0.23419961877726903,0.003892584533212743,0.29017450983663007
100000419,효자로입구(00001),종로구,11899,0,0,0.6,37.576715,126.974305,18.7482,30.2713,0.0337,0.0181,0.0029,0.4091,59.4,50.3,53.1,30.1,7.3,10.2,59.4,보통,초미세먼지,0.20099744256029317,0.18149616384043973,0.0,0.24119693107235182
100000420,효자로입구(가상)(00006),종로구,123,0,0,0.6,37.57626474,126.9744334,18.7769,30.2348,0.0337,0.0181,0.0029,0.4081,59.4,50.2,53.1,30.2,7.3,10.2,59.4,보통,초미세먼지,0.20001031056684734,0.18001546585027098,0.0,0.2400123726802168
100000421,유림회관앞(00004),종로구,3063,18.0,9.0,0.6222,37.5858956,126.9969805,18.8832,31.5312,0.0332,0.0183,0.0028,0.4125,59.7,51.5,52.7,30.5,7.0,10.3,59.7,보통,초미세먼지,0.3576641656696294,0.2770518040599996,0.0002156769402663598,0.3391969988035553
100900002,경진빌라(00029),종로구,1244,15.0,7.5,0.2815,37.60186409,126.9579482,17.0556,29.9185,0.0338,0.0154,0.0032,0.4684,55.1,49.9,53.2,25.6,8.0,11.7,55.1,보통,초미세먼지,0.21893143972275445,0.15960086328783535,3.302175582694424e-05,0.18771772766730538
100900003,혜화초등학교(00008),종로구,92691,12.5,6.25,0.6148,37.58725323,126.9998517,18.826,31.5807,0.0332,0.0182,0.0028,0.4132,59.6,51.6,52.6,30.4,7.0,10.3,59.6,보통,초미세먼지,0.3168748305613883,0.25859928287911943,0.00447847958369452,0.317749796673666
100900004,명륜시장.성대후문(00029),종로구,6985,7.0,3.5,0.5852,37.58872461,126.9952305,18.6803,31.3967,0.0332,0.018,0.0028,0.4152,59.2,51.4,52.6,30.0,7.0,10.4,59.2,보통,초미세먼지,0.2539805845692766,0.21143383981687774,0.00017988562833744654,0.2697767014831319
100900005,오거리.한옥마을입구(00004),종로구,24510,10.0,5.0,0.5407,37.579537,126.969561,18.4309,30.371,0.0336,0.0176,0.0029,0.4197,58.6,50.4,53.0,29.3,7.4,10.5,58.6,보통,초미세먼지,0.26563481596583555,0.21530407580060512,0.0008332418934146135,0.2687617791590027
100900006,완성빌라(00030),종로구,3813,15.0,7.5,0.2815,37.60333997,126.9576665,17.029,30.0491,0.0336,0.0154,0.0032,0.4648,55.1,50.0,53.0,25.7,7.9,11.6,55.1,보통,초미세먼지,0.21914678806609364,0.1599238858028441,0.00010121539788435562,0.1879761456793124
100900007,삼청파출소(00004),종로구,80980,10.0,5.0,0.5852,37.58181366,126.981251,18.6617,30.8127,0.0335,0.018,0.0029,0.4141,59.2,50.8,52.9,29.9,7.2,10.4,59.2,보통,초미세먼지,0.2851832706982698,0.23573786901036758,0.002979269492333863,0.2922199248379238
100900008,양현관(00030),종로구,1184,7.0,3.5,0.5704,37.589768,126.9937686,18.6013,31.3273,0.0332,0.0179,0.0028,0.4164,59.0,51.3,52.6,29.8,7.1,10.4,59.0,보통,초미세먼지,0.24855603980758048,0.2062599856372966,2.971976652368696e-05,0.26326724776909655
100900009,종로5가입구(00004),종로구,18270,9.0,4.5,0.7852,37.57179285,126.9976709,19.7667,31.8664,0.0337,0.0194,0.0028,0.4059,61.9,51.9,53.1,32.4,6.9,10.1,61.9,보통,초미세먼지,0.3382598914544132,0.28285280014458264,0.000811693088122906,0.3609118697452958
100900010,상명대후문(00031),종로구,11811,15.0,7.5,0.2741,37.60407158,126.9574634,17.0108,30.113,0.0335,0.0154,0.0032,0.4631,55.0,50.1,53.0,25.7,7.9,11.6,55.0,보통,초미세먼지,0.21734809058593937,0.1587073210640942,0.00030527031749588376,0.18581770870312725
100900011,원서고개(00017),종로구,22618,15.0,7.5,0.6074,37.58308055,126.9878088,18.7973,31.1647,0.0334,0.0182,0.0028,0.4127,59.5,51.2,52.8,30.3,7.1,10.3,59.5,보통,초미세먼지,0.32936510654191875,0.2600661783313966,0.0012955800052905227,0.3202381278503025
100900012,샘미용실.종로구청소년상담복지센터(00031),종로구,340,7.0,3.5,0.563,37.59025457,126.9934084,18.5706,31.3059,0.0331,0.0179,0.0028,0.4168,58.9,51.3,52.6,29.8,7.1,10.4,58.9,보통,초미세먼지,0.2460161550748746,0.2039316400197192,8.423556148781052e-06,0.26021938608984946
100900013,창신쌍용2단지.한성대후문(00003),종로구,193658,9.0,4.5,0.6593,37.5812648,127.0127581,19.0778,32.2676,0.0331,0.0186,0.0027,0.4061,60.2,52.3,52.6,31.0,6.8,10.2,60.2,보통,초미세먼지,0.3109866128792244,0.2671280674669847,0.007223919274464695,0.32818393545506935
100900014,산정빌라(00032),종로구,409,15.0,7.5,0.2741,37.60528358,126.9575782,16.9959,30.2255,0.0334,0.0154,0.0031,0.4599,55.0,50.2,52.8,25.7,7.8,11.5,55.0,보통,초미세먼지,0.21639230942176904,0.15727364931783872,1.0571125210042881e-05,0.18467077130612286
100900015,경희궁자이2.3단지(00003),종로구,18121,11.0,5.5,0.6148,37.56878711,126.9640686,18.8392,29.972,0.0338,0.0182,0.0029,0.4039,59.6,50.0,53.2,30.4,7.3,10.1,59.6,보통,초미세먼지,0.2981239446280276,0.2417229539790784,0.0007704737796743264,0.30274873355363313
100900016,오거리(00003),종로구,316,40.0,20.0,0.3037,37.60706212,126.9622629,17.1757,30.442,0.0333,0.0157,0.0031,0.4506,55.4,50.4,52.7,26.2,7.6,11.3,55.4,보통,초미세먼지,0.43459439017053336,0.2911508445150593,2.4134363879612415e-05,0.32151326820464005
100900017,국민생활관(00007),종로구,241176,12.5,6.25,0.5778,37.58974563,126.998862,18.658,31.4666,0.0331,0.018,0.0028,0.4156,59.1,51.5,52.6,30.0,7.0,10.4,59.1,보통,초미세먼지,0.3169760175516585,0.2661584707719321,0.010950744075049531,0.3178712210619902
100900018,문방구(00033),종로구,556,15.0,7.5,0.2741,37.60613345,126.9579809,16.9994,30.3026,0.0333,0.0154,0.0031,0.4574,55.0,50.3,52.8,25.7,7.8,11.4,55.0,보통,초미세먼지,0.2164046318065378,0.15729213289499183,1.4370527180400589e-05,0.18468555816784535
100900019,마트앞(00034),종로구,2617,15.0,7.5,0.2815,37.60669871,126.9587565,17.0257,30.3561,0.0333,0.0155,0.0031,0.4554,55.1,50.4,52.7,25.8,7.7,11.4,55.1,보통,초미세먼지,0.21904653247300931,0.1597735024132176,6.946779340764716e-05,0.18785583896761118
100900020,통인시장앞(00003),종로구,84782,10.0,5.0,0.5185,37.58044175,126.9684957,18.3297,30.3772,0.0336,0.0174,0.003,0.4234,58.3,50.4,53.0,29.0,7.4,10.6,58.3,보통,초미세먼지,0.26327975396509984,0.21621592724394606,0.002763800067360507,0.26593570475811984
100900021,양현관(00003),종로구,93235,7.0,3.5,0.5704,37.58979142,126.9936044,18.5975,31.3219,0.0332,0.0179,0.0028,0.4164,59.0,51.3,52.6,29.8,7.1,10.4,59.0,보통,초미세먼지,0.2562722836194591,0.2178343513551145,0.0023403061079695555,0.2725267403433509
100900022,국민은행.세검정지점(00035),종로구,1036,15.0,7.5,0.2963,37.604952,126.960876,17.1369,30.2765,0.0334,0.0156,0.0031,0.4563,55.3,50.3,52.9,26.0,7.8,11.4,55.3,보통,초미세먼지,0.2238522755723736,0.16401915409930115,2.8947824536058716e-05,0.19362273068684835
100900024,삼청동주민센터(00003),종로구,133748,10.0,5.0,0.563,37.58426383,126.9819072,18.5703,30.8946,0.0334,0.0178,0.0029,0.4167,58.9,50.9,52.8,29.7,7.2,10.4,58.9,보통,초미세먼지,0.2821991802941019,0.2357061778485603,0.004733755410870455,0.28863901635292233
100900025,세검초등학교(00003),종로구,2292,15.0,7.5,0.3037,37.60425228,126.9614908,17.1686,30.2487,0.0335,0.0156,0.0031,0.4567,55.4,50.2,52.9,26.0,7.8,11.4,55.4,보통,초미세먼지,0.2264266965127307,0.1663993040283553,6.564394226116098e-05,0.19671203581527683
100900026,빨래터(00016),종로구,19013,15.0,7.5,0.6148,37.58299,126.989067,18.8408,31.2298,0.0334,0.0182,0.0028,0.4122,59.6,51.2,52.8,30.4,7.1,10.3,59.6,보통,초미세먼지,0.33153205052744056,0.2618351128281978,0.0011023637547306717,0.3228384606329287
100900027,혜화역4번출구(00010),종로구,124345,11.3333333333333,5.66666666666666,0.6667,37.583509,127.001555,19.1333,31.765,0.0333,0.0186,0.0028,0.4098,60.3,51.8,52.8,31.1,6.9,10.2,60.3,보통,초미세먼지,0.32708997914331583,0.27230163538164054,0.005906543736767925,0.3358413083053124
100900028,방송통신대앞(00012),종로구,35697,12.5,6.25,0.7556,37.57869736,127.0019927,19.6148,31.9303,0.0336,0.0192,0.0028,0.407,61.5,51.9,53.0,32.0,6.9,10.2,61.5,보통,초미세먼지,0.359010846199398,0.2936551581879858,0.0021195654406229126,0.36831301543927764
100900029,화정박물관(00002),종로구,14248,40.0,20.0,0.3333,37.60498061,126.9652008,17.315,30.4178,0.0334,0.0159,0.0031,0.4495,55.8,50.4,52.8,26.4,7.6,11.2,55.8,보통,초미세먼지,0.44563879368379705,0.3017915238590289,0.0011943492393526002,0.3347665524205565
100900030,서울대치과대학(00010),종로구,656,9.0,4.5,0.7481,37.577411,126.997802,19.5502,31.8033,0.0336,0.0191,0.0028,0.4071,61.4,51.8,53.0,31.9,7.0,10.2,61.4,보통,초미세먼지,0.324437705739235,0.26952692897922287,2.776979337540213e-05,0.344325246887082
100900031,서울국제고등학교(00006),종로구,129419,12.5,6.25,0.5852,37.58907159,126.9972903,18.6858,31.4474,0.0331,0.018,0.0028,0.4151,59.2,51.4,52.6,30.1,7.0,10.4,59.2,보통,초미세먼지,0.3100770393772658,0.25432852202886147,0.005951686811996113,0.3095924472527189
100900032,샘미용실.종로구청소년상담복지센터(00002),종로구,58923,7.0,3.5,0.563,37.59030953,126.9932227,18.565,31.2993,0.0331,0.0179,0.0028,0.4169,58.9,51.3,52.6,29.8,7.1,10.4,58.9,보통,초미세먼지,0.2509269187953261,0.2112977856003965,0.0014598270557488998,0.26611230255439133
100900033,효제초교.연동교회.김마리아활동터(00016),종로구,53913,8.0,4.0,0.837,37.57364134,127.0022088,20.0565,32.0514,0.0339,0.0197,0.0028,0.4059,62.6,52.1,53.3,32.9,6.9,10.1,62.6,보통,초미세먼지,0.3501983098289201,0.2978900573359726,0.002269691624916556,0.3802379717947041
100900034,박노수미술관(00002),종로구,159134,10.0,5.0,0.4963,37.58099674,126.9666035,18.2121,30.3484,0.0337,0.0172,0.003,0.4279,58.0,50.3,53.0,28.7,7.5,10.7,58.0,보통,초미세먼지,0.2621049584782669,0.21889817845814113,0.004965268152369987,0.2645259501739204
100900035,금융연수원(00002),종로구,100749,10.0,5.0,0.5407,37.586641,126.981657,18.456,30.9069,0.0334,0.0176,0.0029,0.4195,58.6,50.9,52.8,29.4,7.2,10.5,58.6,보통,초미세먼지,0.272025607070482,0.22489026245757482,0.0034250627302990166,0.27643072848457845
100900036,화정박물관(00002),종로구,3845,15.0,7.5,0.3333,37.6048012,126.9648837,17.3035,30.3985,0.0334,0.0158,0.0031,0.4502,55.8,50.4,52.8,26.4,7.7,11.3,55.8,보통,초미세먼지,0.23643342110727272,0.17548346499424244,0.00012086624856060715,0.20872010532872728
100900037,세탁소(00015),종로구,19013,15.0,7.5,0.6296,37.58141098,126.9893671,18.9256,31.2455,0.0334,0.0183,0.0028,0.4109,59.8,51.2,52.8,30.6,7.1,10.3,59.8,보통,초미세먼지,0.33647032213237865,0.2662795572726422,0.001128926736772374,0.3287643865588545
100900038,서울대치과대학(00002),종로구,11022,9.0,4.5,0.7481,37.577572,126.99787,19.5423,31.8026,0.0336,0.0191,0.0028,0.4071,61.4,51.8,53.0,31.9,7.0,10.2,61.4,보통,초미세먼지,0.32530664342979715,0.2708303355150661,0.0004665833271092717,0.34536797211575654
100900039,낙산공원(00001),종로구,68792,9.0,4.5,0.7111,37.58040372,127.0087216,19.3536,32.0772,0.0334,0.0189,0.0027,0.4069,60.9,52.1,52.8,31.6,6.9,10.2,60.9,보통,초미세먼지,0.31780357780581475,0.26698314448649985,0.0027679395690132767,0.33636429336697765
100900040,명륜3가종점(00001),종로구,93777,7.0,3.5,0.5556,37.59094838,126.9928637,18.5276,31.2755,0.0331,0.0178,0.0028,0.4175,58.8,51.3,52.6,29.7,7.1,10.4,58.8,보통,초미세먼지,0.25137944556924624,0.21345805724275826,0.00229277038979559,0.2666553346830955
100900041,수성동계곡(00001),종로구,143693,10.0,5.0,0.4667,37.582082,126.964469,18.0375,30.2897,0.0337,0.0169,0.003,0.4349,57.6,50.3,53.1,28.2,7.6,10.9,57.6,보통,초미세먼지,0.2509340619131937,0.20806775953645712,0.004215810558506644,0.25112087429583246
100900042,서울대학교병원현관.암병원현관(00001),종로구,176287,9.0,4.5,0.7259,37.57895147,126.9981568,19.4487,31.7784,0.0335,0.019,0.0028,0.4076,61.1,51.8,52.9,31.7,7.0,10.2,61.1,보통,초미세먼지,0.3317526980550686,0.28494386189741766,0.007240920812415668,0.3531032376660823
100900043,이화사거리(00013),종로구,34816,18.0,9.0,0.7926,37.57694834,127.0020085,19.7956,31.9794,0.0337,0.0194,0.0028,0.4064,62.0,52.0,53.1,32.4,6.9,10.2,62.0,보통,초미세먼지,0.4171160080622114,0.3321554935747985,0.00312277060187473,0.41053920967465374
100900044,서대문역3번출구(00001),종로구,431827,11.0,5.5,0.6444,37.56633706,126.9663939,19.0055,29.6871,0.034,0.0185,0.0029,0.3986,60.0,49.5,53.3,30.8,7.3,10.0,60.0,보통,초미세먼지,0.3426797022129467,0.3026306644305311,0.019245387355562308,0.35621564265553607
100900045,통일부(00003),종로구,10306,12.0,6.0,0.5556,37.58759481,126.9859477,18.5364,31.0805,0.0333,0.0178,0.0029,0.4176,58.8,51.1,52.7,29.6,7.2,10.4,58.8,보통,초미세먼지,0.2860490933309437,0.2279625288853045,0.00043195407287927777,0.2832589119971325
100900046,명륜시장.성대후문(00004),종로구,223756,7.0,3.5,0.5852,37.58851105,126.9952543,18.6928,31.4029,0.0332,0.018,0.0028,0.415,59.2,51.4,52.6,30.1,7.0,10.4,59.2,보통,초미세먼지,0.2721515755128267,0.23869032623220296,0.005762417845994802,0.291581890615392
100900047,평창파출소(00001),종로구,126771,27.5,13.75,0.3407,37.60568122,126.9668167,17.3748,30.5001,0.0333,0.016,0.003,0.4461,55.9,50.5,52.8,26.6,7.6,11.2,55.9,보통,초미세먼지,0.3533735873184536,0.25566223282953227,0.00746819015490635,0.2865483047821443
100900048,가회동주민센터(00008),종로구,37081,13.5,6.75,0.6148,37.579973,126.984957,18.8427,30.9555,0.0335,0.0182,0.0029,0.4106,59.6,51.0,52.9,30.4,7.1,10.3,59.6,보통,초미세먼지,0.32054661411928664,0.2566069582159669,0.0019349432151817827,0.317155936943144
100900049,독립문초등학교(00007),종로구,13363,11.0,5.5,0.5407,37.57386997,126.9606775,18.4486,30.2964,0.0337,0.0176,0.0029,0.4176,58.6,50.3,53.0,29.4,7.4,10.4,58.6,보통,초미세먼지,0.2730337437004137,0.21890246740247243,0.0004997173628669698,0.2726404924404965
100900050,아름다운실버(00007),종로구,595,40.0,20.0,0.3259,37.61201006,126.9654637,17.2829,30.7023,0.0331,0.0159,0.003,0.4404,55.7,50.7,52.6,26.4,7.4,11.0,55.7,보통,초미세먼지,0.44202518496127746,0.2978525922567309,4.8767956650837725e-05,0.33043022195353294
100900051,창덕궁(00008),종로구,9479,9.0,4.5,0.6741,37.57676,126.990385,19.1579,31.2816,0.0335,0.0187,0.0028,0.4075,60.4,51.3,52.9,31.1,7.0,10.2,60.4,보통,초미세먼지,0.30048594227790754,0.24841409860204644,0.00036153583521333536,0.315583130733489
100900052,북촌한옥마을입구.정세권활동터(00007),종로구,109621,13.5,6.75,0.6,37.58159973,126.9849422,18.7755,30.9949,0.0334,0.0181,0.0029,0.4123,59.4,51.0,52.9,30.2,7.1,10.3,59.4,보통,초미세먼지,0.32168906218185517,0.26128359327278267,0.005582355275476972,0.31852687461822615
100900053,청룡사.보문파크뷰자이아파트(00006),종로구,66483,9.0,4.5,0.6222,37.58001895,127.0170071,18.8929,32.6947,0.0329,0.0184,0.0027,0.4025,59.7,52.7,52.4,30.7,6.6,10.1,59.7,보통,초미세먼지,0.2879803945269948,0.24002614734604766,0.0023406545902266403,0.30057647343239374
100900054,소나무집(00006),종로구,2376,40.0,20.0,0.3185,37.61127707,126.9641105,17.229,30.6625,0.0331,0.0158,0.003,0.4426,55.6,50.7,52.6,26.3,7.4,11.1,55.6,보통,초미세먼지,0.43970534281372736,0.29585431051688726,0.00019031797536679857,0.3276464113764728
100900056,경복궁(00006),종로구,32171,10.0,5.0,0.6148,37.57695016,126.9793378,18.8332,30.4624,0.0336,0.0182,0.0029,0.4078,59.6,50.5,53.0,30.4,7.2,10.2,59.6,보통,초미세먼지,0.2909683630361951,0.23848958159132966,0.001243505122931343,0.29916203564343413
100900057,종로3가역9번출구(00006),종로구,260802,9.0,4.5,0.7111,37.57108758,126.9920932,19.3428,31.3256,0.0336,0.0189,0.0028,0.4051,60.9,51.3,53.0,31.5,7.0,10.1,60.9,보통,초미세먼지,0.33389895943468145,0.2911262169297999,0.010493722750869296,0.3556787513216177
100900058,안국선원.삼거리(00006),종로구,41520,13.5,6.75,0.5926,37.58279098,126.9849941,18.7256,31.0179,0.0334,0.0181,0.0029,0.4135,59.3,51.0,52.8,30.1,7.1,10.3,59.3,보통,초미세먼지,0.313511309201596,0.25049844528387544,0.0020882670024390776,0.3087135710419152
100900059,사우디대사관앞.경남빌라(00005),종로구,24758,12.0,6.0,0.5852,37.58410567,126.9850312,18.6684,31.0343,0.0334,0.018,0.0029,0.4148,59.2,51.0,52.8,30.0,7.1,10.4,59.2,보통,초미세먼지,0.2971370862325051,0.23866859231172055,0.0010930217943867883,0.29656450347900615
100900060,종로센트레빌후문.e편한세상보문아파트(00005),종로구,29185,9.0,4.5,0.6222,37.58177439,127.0161855,18.8707,32.5239,0.0329,0.0184,0.0027,0.4046,59.7,52.5,52.4,30.6,6.7,10.1,59.7,보통,초미세먼지,0.28485386182560696,0.23533634829396596,0.001027510855643766,0.2968246341907284
100900061,경희궁자이4단지(00005),종로구,61508,11.0,5.5,0.5704,37.57136,126.961358,18.614,30.2211,0.0337,0.0179,0.0029,0.4115,59.0,50.2,53.1,29.8,7.3,10.3,59.0,보통,초미세먼지,0.2869460774864154,0.23384504215554897,0.002426162812829189,0.2893352929836984
100900062,언덕앞(00005),종로구,841,40.0,20.0,0.3185,37.60895398,126.9637922,17.2271,30.5646,0.0332,0.0158,0.003,0.4459,55.6,50.6,52.6,26.3,7.5,11.1,55.6,보통,초미세먼지,0.43957667029250286,0.29566130173505056,6.736423286341651e-05,0.32749200435100345
100900063,혜화우체국(00009),종로구,57966,12.5,6.25,0.6296,37.58603766,127.0006137,18.9196,31.6467,0.0332,0.0184,0.0028,0.412,59.8,51.6,52.7,30.6,7.0,10.3,59.8,보통,초미세먼지,0.3189022531112648,0.25867745374097123,0.0028681852427175896,0.32018270373351776
100900064,새마을금고(00005),종로구,122726,7.0,3.5,0.6,37.58773706,126.9965181,18.7574,31.4636,0.0332,0.0181,0.0028,0.4141,59.4,51.5,52.6,30.2,7.0,10.4,59.4,보통,초미세먼지,0.26862093192603315,0.2304313978890498,0.003240593556700448,0.2873451183112398
100900065,광화문새마을금고(00005),종로구,13714,10.0,5.0,0.5481,37.57936877,126.9711466,18.4981,30.3873,0.0336,0.0177,0.0029,0.4175,58.7,50.4,53.0,29.5,7.3,10.4,58.7,보통,초미세먼지,0.26719896900665047,0.21616882388034592,0.0004726076972470353,0.27063876280798055
100900066,종로4가.종묘공원(00005),종로구,47811,9.0,4.5,0.7407,37.570689,126.994624,19.511,31.5919,0.0336,0.0191,0.0028,0.4056,61.3,51.6,53.0,31.9,7.0,10.1,61.3,보통,초미세먼지,0.32592137302363217,0.2732339113873002,0.0020038963883593193,0.34610564762835866
100900067,인왕빌딩(00005),종로구,2255,15.0,7.5,0.2667,37.60792833,126.9577443,16.9602,30.4359,0.0331,0.0154,0.0031,0.4539,54.9,50.4,52.6,25.7,7.7,11.3,54.9,보통,초미세먼지,0.21407791594775616,0.15528354058830085,5.670811766016524e-05,0.1818934991373074
100900068,중앙중고(00018),종로구,19398,15.0,7.5,0.6,37.58309218,126.9869653,18.7711,31.1215,0.0334,0.0181,0.0028,0.413,59.4,51.1,52.8,30.2,7.1,10.3,59.4,보통,초미세먼지,0.3266260518349917,0.2574390777524876,0.0010975849886193977,0.3169512622019901
100900069,감사원(00004),종로구,86748,12.0,6.0,0.5704,37.58621065,126.9852901,18.5808,31.0553,0.0333,0.0178,0.0029,0.4167,59.0,51.1,52.8,29.7,7.2,10.4,59.0,보통,초미세먼지,0.29739517266711396,0.24201868492659678,0.003732814150188412,0.2968742072005367
100900070,명신초.삼선푸르지오.힐스테이트(00004),종로구,75992,9.0,4.5,0.6296,37.58210621,127.0145563,18.9336,32.3686,0.033,0.0185,0.0027,0.4059,59.8,52.4,52.5,30.8,6.8,10.1,59.8,보통,초미세먼지,0.29124662935508167,0.2434440181066966,0.0027072866117121837,0.304495955226098
100900071,영천시장(00004),종로구,101004,11.0,5.5,0.5926,37.570084,126.962735,18.731,30.1094,0.0337,0.0181,0.0029,0.4075,59.3,50.1,53.1,30.1,7.3,10.2,59.3,보통,초미세먼지,0.29766426658651435,0.24547788136125298,0.0041392930197993345,0.30219711990381726
100900072,청련사입구(00004),종로구,472,40.0,20.0,0.3037,37.60798038,126.9624312,17.1754,30.4944,0.0332,0.0157,0.003,0.4489,55.4,50.5,52.7,26.2,7.6,11.2,55.4,보통,초미세먼지,0.43460746698702263,0.29117045973979316,3.604879668094006e-05,0.32152896038442713
100900073,한국사회과학도서관.이회영기념관(00012),종로구,27192,11.0,5.5,0.5704,37.57366701,126.9641239,18.6043,30.1864,0.0337,0.0179,0.0029,0.4125,59.0,50.2,53.1,29.8,7.3,10.3,59.0,보통,초미세먼지,0.2840695131617646,0.22953019566857286,0.0010725794889518646,0.2858834157941176
100900074,감나무골공원(00012),종로구,534,40.0,20.0,0.3556,37.61240596,126.9699479,17.4488,30.7683,0.0331,0.016,0.0029,0.4356,56.1,50.8,52.6,26.7,7.3,10.9,56.1,보통,초미세먼지,0.45189661480060367,0.3067338110897943,4.774714533515172e-05,0.3422759377607244
100900075,혜화역1번출구(00023),종로구,550911,12.5,6.25,0.6667,37.58347299,127.0017633,19.1383,31.773,0.0333,0.0186,0.0028,0.4098,60.3,51.8,52.8,31.1,6.9,10.2,60.3,보통,초미세먼지,0.37256941484347755,0.3317707889318831,0.02886282872161796,0.38458329781217315
100900076,서울대병원장례식장(00013),종로구,5319,9.0,4.5,0.6963,37.5805554,126.997431,19.2893,31.6992,0.0334,0.0188,0.0028,0.4086,60.7,51.7,52.9,31.4,7.0,10.2,60.7,보통,초미세먼지,0.3075446345789347,0.25455769260914274,0.0002095584990128262,0.32405356149472164
100900077,완성빌라(00012),종로구,7304,15.0,7.5,0.2815,37.60340209,126.9575011,17.0221,30.0502,0.0336,0.0154,0.0032,0.4649,55.1,50.1,53.0,25.6,7.9,11.6,55.1,보통,초미세먼지,0.21943942374791425,0.16036283932557502,0.0001938833637942128,0.18832730849749713
100900078,낙원상가(00004),종로구,23944,13.5,6.75,0.6667,37.57376,126.987417,19.1046,30.889,0.0336,0.0186,0.0028,0.4052,60.3,50.9,53.0,31.0,7.1,10.1,60.3,보통,초미세먼지,0.3367293459018305,0.2705106855194124,0.0013548084837355838,0.3365752150821966
100900079,힐탑(00011),종로구,1866,40.0,20.0,0.3481,37.61160556,126.9690206,17.4198,30.7368,0.0331,0.016,0.0029,0.4372,56.0,50.7,52.6,26.7,7.4,10.9,56.0,보통,초미세먼지,0.4495391348927736,0.3046790727095307,0.0001633707919859346,0.3394469618713283
100900080,상명대후문(00011),종로구,12427,15.0,7.5,0.2741,37.60402558,126.9573354,17.0066,30.1056,0.0336,0.0154,0.0032,0.4634,55.0,50.1,53.0,25.6,7.9,11.6,55.0,보통,초미세먼지,0.21739972724592257,0.15878477605406904,0.00032119162099071607,0.18587967269510713
100900081,수운회관(00003),종로구,5693,13.5,6.75,0.6519,37.575219,126.986671,19.0501,30.8914,0.0336,0.0185,0.0028,0.4062,60.1,50.9,53.0,30.9,7.1,10.2,60.1,보통,초미세먼지,0.3302611705933954,0.2637713855197226,0.00031496518423348367,0.3288134047120745
100900082,행촌주차장(00010),종로구,30397,11.0,5.5,0.5407,37.57527281,126.962888,18.4525,30.2697,0.0337,0.0176,0.003,0.418,58.6,50.3,53.1,29.4,7.4,10.5,58.6,보통,초미세먼지,0.2744616314701451,0.2210442990570694,0.0011367139623637867,0.2743539577641741
100900083,화인빌라(00010),종로구,1446,40.0,20.0,0.3481,37.61293453,126.9685386,17.3978,30.763,0.0331,0.016,0.0029,0.4365,56.0,50.8,52.6,26.6,7.3,10.9,56.0,보통,초미세먼지,0.44950392807914863,0.3046262624890933,0.00012659923108877892,0.3394047136949784
100900085,서울대어린이병원응급실.갑상선센터(00011),종로구,3177,9.0,4.5,0.7481,37.578686,126.99984,19.5451,31.8583,0.0336,0.0191,0.0028,0.4072,61.4,51.9,53.0,31.9,6.9,10.2,61.4,보통,초미세먼지,0.3246490304467314,0.2698439160404674,0.00013448877066105574,0.3445788365360776
100900086,헌법재판소.안국역(00002),종로구,24827,13.5,6.75,0.637,37.577387,126.985816,18.962,30.9211,0.0335,0.0184,0.0028,0.408,59.9,50.9,52.9,30.7,7.1,10.2,59.9,보통,초미세먼지,0.3269268208263131,0.2617328238320622,0.0013423364700089503,0.3248121849915757
100900088,무악현대아파트후문(00009),종로구,31293,11.0,5.5,0.5259,37.57633723,126.9619412,18.3417,30.2998,0.0337,0.0175,0.003,0.4222,58.4,50.3,53.1,29.1,7.4,10.6,58.4,보통,초미세먼지,0.26959846773427326,0.2167125164162247,0.001138159583935936,0.26851816128112793
100900089,박종화고택입구(00009),종로구,718,40.0,20.0,0.3407,37.61431026,126.9676873,17.3647,30.7868,0.0331,0.0159,0.0029,0.4359,55.9,50.8,52.5,26.6,7.3,10.9,55.9,보통,초미세먼지,0.4469737671330629,0.3023125025514462,6.15243725081691e-05,0.3363685205596755
100900090,이화사거리(00013),종로구,27773,7.0,3.5,0.8,37.576513,127.002101,19.8411,31.9929,0.0338,0.0195,0.0028,0.4063,62.1,52.0,53.1,32.5,6.9,10.2,62.1,보통,초미세먼지,0.3273280924638224,0.27849213869573347,0.0009777988348053557,0.3577937109565868
100900091,산정빌라(00009),종로구,322,15.0,7.5,0.2741,37.60515199,126.9574922,16.9944,30.2125,0.0334,0.0154,0.0031,0.4603,55.0,50.2,52.8,25.7,7.8,11.5,55.0,보통,초미세먼지,0.2163850165818039,0.157262710057891,8.32249955411689e-06,0.18466201989816466
100900092,아름다운가게.정독도서관(00001),종로구,49486,13.5,6.75,0.6222,37.57895,126.985123,18.8868,30.9327,0.0335,0.0183,0.0029,0.4096,59.7,50.9,52.9,30.5,7.1,10.2,59.7,보통,초미세먼지,0.32405560830989233,0.2603889680203939,0.0026133665685653972,0.32136672997187077
100900093,쌍용아파트입구.창신역(00008),종로구,48857,9.0,4.5,0.6444,37.58051123,127.0149636,18.9955,32.463,0.033,0.0185,0.0027,0.4044,60.0,52.5,52.5,30.9,6.7,10.1,60.0,보통,초미세먼지,0.293910289322609,0.24447654509502453,0.001781531410890424,0.30769234718713073
100900094,린덴바움숲유치원(00008),종로구,29009,11.0,5.5,0.5407,37.57466928,126.961804,18.446,30.2806,0.0337,0.0176,0.003,0.418,58.6,50.3,53.1,29.4,7.4,10.5,58.6,보통,초미세먼지,0.27434528133368935,0.22086977385238582,0.0010848088737115862,0.27421433760042724
100900095,보현산신각(00008),종로구,1026,40.0,20.0,0.3259,37.61348252,126.9657791,17.2929,30.7492,0.033,0.0159,0.0029,0.4385,55.7,50.7,52.5,26.4,7.4,11.0,55.7,보통,초미세먼지,0.44206131385811637,0.2979067856019893,8.409398911556218e-05,0.33047357662973964
100900096,원남로터리(00009),종로구,10587,9.0,4.5,0.7556,37.57623737,126.9975115,19.6116,31.8158,0.0336,0.0192,0.0028,0.4067,61.5,51.8,53.0,32.0,7.0,10.2,61.5,보통,초미세먼지,0.32773931503244047,0.27299786143754956,0.000452606222100172,0.3482871780389286
100900097,문방구(00008),종로구,1379,15.0,7.5,0.2741,37.60626861,126.9579797,16.9972,30.3134,0.0333,0.0154,0.0031,0.4571,55.0,50.3,52.7,25.7,7.7,11.4,55.0,보통,초미세먼지,0.2164736203960933,0.15739561577932512,3.564200896002233e-05,0.18476834447531199
100900098,평창동산림제3초소(00017),종로구,2687,40.0,20.0,0.3926,37.617356,126.977104,17.6278,30.9036,0.0331,0.0162,0.0029,0.426,56.6,50.9,52.6,26.9,7.1,10.6,56.6,보통,초미세먼지,0.4644227706456505,0.3181156374499572,0.0002652824092667092,0.3573073247747806
100900099,통인시장.종로구보건소(00017),종로구,8666,17.5,8.75,0.5259,37.58033503,126.9687505,18.3471,30.3794,0.0336,0.0175,0.003,0.4228,58.4,50.4,53.0,29.1,7.4,10.6,58.4,보통,초미세먼지,0.32186840922976984,0.2463674286594696,0.0005014411927785312,0.29874209107572386
100900100,삼청파출소(00017),종로구,4880,10.0,5.0,0.5852,37.58164517,126.9813258,18.6713,30.8111,0.0335,0.018,0.0029,0.4138,59.2,50.8,52.9,30.0,7.2,10.3,59.2,보통,초미세먼지,0.2788041313724183,0.22616916002159027,0.00017953612154345824,0.28456495764690193
100900101,종로사우나(00009),종로구,67650,15.0,7.5,0.6667,37.57380111,126.9877504,19.1154,30.928,0.0336,0.0186,0.0028,0.4053,60.3,50.9,53.0,31.0,7.1,10.1,60.3,보통,초미세먼지,0.35289303398823874,0.2835062176490248,0.004253108824512392,0.3484716407858865
100900102,종로도서관(00016),종로구,19736,11.0,5.5,0.563,37.57648423,126.9671252,18.5436,30.2468,0.0337,0.0178,0.0029,0.4153,58.9,50.2,53.1,29.6,7.3,10.4,58.9,보통,초미세먼지,0.28097537259170613,0.2263704662949666,0.0007683698931410806,0.2821704471100474
100900103,평창공원지킴터입구(00016),종로구,1221,40.0,20.0,0.3852,37.6163964,126.9757439,17.601,30.8869,0.0331,0.0162,0.0029,0.4276,56.5,50.9,52.6,26.9,7.2,10.7,56.5,보통,초미세먼지,0.461830746298481,0.3157090824106844,0.0001182725402473257,0.3541968955581772
100900104,오거리.한옥마을입구(00016),종로구,2431,10.0,5.0,0.5407,37.57946844,126.9697393,18.442,30.3711,0.0336,0.0176,0.0029,0.4193,58.6,50.4,53.0,29.4,7.4,10.5,58.6,보통,초미세먼지,0.26378402730387135,0.21252789280765882,8.264426939579459e-05,0.26654083276464563
100900105,정독도서관(00016),종로구,8041,10.0,5.0,0.5926,37.580262,126.980074,18.7003,30.7012,0.0335,0.018,0.0029,0.4125,59.3,50.7,52.9,30.0,7.2,10.3,59.3,보통,초미세먼지,0.28153824036028824,0.22878884202191385,0.0002995745908551456,0.28784588843234593
100900106,인사동들머리.3.1독립선언터(00008),종로구,6436,15.0,7.5,0.6519,37.57194702,126.983297,19.055,30.2745,0.0338,0.0185,0.0029,0.4016,60.1,50.3,53.1,30.9,7.2,10.0,60.1,보통,초미세먼지,0.34282345312321283,0.27136480931444884,0.00039563517101444287,0.3363881437478554
100900107,종로5가역.중부교육지원청(00015),종로구,396794,8.0,4.0,0.8444,37.57141925,127.0020898,20.0803,32.0561,0.0339,0.0198,0.0028,0.4058,62.7,52.1,53.3,33.0,6.9,10.1,62.7,보통,초미세먼지,0.3814097014945601,0.34322566335295124,0.016852520362182,0.4176916417934722
100900108,황학정앞(00015),종로구,4424,11.0,5.5,0.5407,37.57681261,126.9653294,18.4505,30.2753,0.0337,0.0176,0.003,0.4185,58.6,50.3,53.1,29.4,7.4,10.5,58.6,보통,초미세먼지,0.2722844253504297,0.21777848987749632,0.00016543812117963586,0.27174131042051564
100900109,참샘골공원(00015),종로구,2082,40.0,20.0,0.3778,37.614612,126.974255,17.5708,30.8549,0.0331,0.0162,0.0029,0.4301,56.4,50.9,52.6,26.9,7.2,10.8,56.4,보통,초미세먼지,0.4594337844639429,0.3135951211403588,0.00019779523197476114,0.3513205413567315
100900110,성균관대정문(00003),종로구,9857,18.0,9.0,0.637,37.584886,126.996646,18.9454,31.547,0.0333,0.0184,0.0028,0.4117,59.9,51.5,52.7,30.6,7.0,10.3,59.9,보통,초미세먼지,0.36317194939782427,0.282350516689329,0.0007105925315115654,0.3458063392773892
100900111,광화문새마을금고(00015),종로구,10221,10.0,5.0,0.5481,37.57949309,126.9710277,18.4862,30.3904,0.0336,0.0177,0.0029,0.4179,58.7,50.4,53.0,29.5,7.3,10.4,58.7,보통,초미세먼지,0.26690616567333636,0.21572961888037484,0.00035223299355125766,0.2702873988080037
100900112,상명초등학교(00015),종로구,676,15.0,7.5,0.2815,37.60092381,126.9567154,17.0237,29.7691,0.034,0.0153,0.0033,0.4734,55.1,49.6,53.3,25.5,8.2,11.8,55.1,보통,초미세먼지,0.21888382669861406,0.15952944375162476,1.7944298182487385e-05,0.1876605920383369
100900113,단군성전앞(00014),종로구,2270,11.0,5.5,0.5556,37.57556009,126.9653175,18.5339,30.2327,0.0337,0.0178,0.0029,0.4154,58.8,50.2,53.1,29.6,7.4,10.4,58.8,보통,초미세먼지,0.27704213629692,0.22195209333426885,8.721370398954951e-05,0.277450563556304
100900114,무애사(00014),종로구,1515,40.0,20.0,0.3704,37.61390043,126.9718458,17.5045,30.8199,0.0331,0.0161,0.0029,0.4326,56.3,50.8,52.6,26.8,7.3,10.8,56.3,보통,초미세먼지,0.45691711946308006,0.31130160512054605,0.00014110667365549857,0.3483005433556961
100900115,서교빌라(00014),종로구,1162,15.0,7.5,0.2815,37.60198906,126.9571554,17.0276,29.898,0.0338,0.0153,0.0032,0.4694,55.1,49.8,53.2,25.6,8.1,11.7,55.1,보통,초미세먼지,0.2189245660115229,0.15959055272098804,3.084508060362476e-05,0.18770947921382752
100900116,종각역YMCA(00006),종로구,164169,13.5,6.75,0.6593,37.57039764,126.9850893,19.0989,30.3455,0.0337,0.0186,0.0029,0.4012,60.2,50.3,53.1,31.0,7.2,10.0,60.2,보통,초미세먼지,0.34601467543402026,0.28592016129917847,0.009185860667023267,0.34771761052082434
100900117,동대문역.2번출구(00013),종로구,57114,9.0,4.5,0.7852,37.57204945,127.0117218,19.7441,32.1593,0.0336,0.0194,0.0027,0.4051,61.9,52.2,53.0,32.3,6.9,10.1,61.9,보통,초미세먼지,0.34151601876023946,0.287736991103322,0.002537440560210819,0.3648192225122873
100900118,종로문화체육센터(00013),종로구,27514,11.0,5.5,0.563,37.57469356,126.9645321,18.5579,30.2157,0.0337,0.0178,0.0029,0.4143,58.9,50.2,53.1,29.7,7.3,10.4,58.9,보통,초미세먼지,0.28162736924974124,0.2273484612820193,0.0010711861187618409,0.28295284309968954
100900119,EN갤러리(00013),종로구,1575,40.0,20.0,0.363,37.6134218,126.9706087,17.4671,30.7974,0.0331,0.0161,0.0029,0.4341,56.2,50.8,52.6,26.8,7.3,10.9,56.2,보통,초미세먼지,0.4544530132054146,0.3090869272155293,0.00014376115563515665,0.3453436158464976
100900120,경진빌라(00013),종로구,1741,15.0,7.5,0.2815,37.60200372,126.9578304,17.0502,29.9268,0.0338,0.0154,0.0032,0.4682,55.1,49.9,53.2,25.6,8.0,11.7,55.1,보통,초미세먼지,0.21897310111887727,0.1596633553820196,4.621453126584399e-05,0.18776772134265277
100900121,종로2가.탑골공원(00005),종로구,73299,13.5,6.75,0.6741,37.57057137,126.9875484,19.1429,30.7036,0.0336,0.0187,0.0028,0.4029,60.4,50.7,53.0,31.1,7.1,10.1,60.4,보통,초미세먼지,0.3433357014339633,0.2789387373361301,0.004193514376828082,0.34450284172075596
100900122,창신초교(00021),종로구,16960,9.0,4.5,0.6741,37.57603721,127.0157201,19.1521,32.5685,0.0331,0.0187,0.0027,0.4024,60.4,52.6,52.6,31.2,6.7,10.1,60.4,보통,초미세먼지,0.301113042689165,0.2493547492189327,0.000646866522335496,0.31633565122699797
100900123,교남동새마을금고(00023),종로구,19644,11.0,5.5,0.5778,37.57149436,126.9623375,18.6487,30.1784,0.0337,0.018,0.0029,0.4104,59.1,50.2,53.1,29.9,7.3,10.3,59.1,보통,초미세먼지,0.28590593222794564,0.2308033427863629,0.000784914115073806,0.2880871186735348
100900124,형제봉입구(00021),종로구,517,40.0,20.0,0.4148,37.61286432,126.9816862,17.7506,30.9085,0.0331,0.0164,0.0029,0.4261,56.9,50.9,52.6,27.3,7.2,10.7,56.9,보통,초미세먼지,0.4716482761826623,0.32450945131103054,5.3931622649161664e-05,0.3659779314191948
100900125,현대사거리(00013),종로구,2915,15.0,7.5,0.6296,37.579306,126.987,18.9323,31.0702,0.0335,0.0184,0.0028,0.4096,59.8,51.1,52.9,30.6,7.1,10.2,59.8,보통,초미세먼지,0.33512089526158295,0.2642554169664485,0.00017308270329203544,0.32714507431389955
100900126,대신중고(00021),종로구,46752,11.0,5.5,0.563,37.57261781,126.9616893,18.5626,30.239,0.0337,0.0178,0.0029,0.4135,58.9,50.2,53.1,29.7,7.3,10.3,58.9,보통,초미세먼지,0.2832400089652568,0.22976742085529256,0.0018201676755235001,0.28488801075830816
100900127,연화정사(00020),종로구,1429,40.0,20.0,0.4,37.614649,126.9794938,17.693,30.9003,0.0331,0.0163,0.0029,0.4264,56.7,50.9,52.6,27.2,7.2,10.7,56.7,보통,초미세먼지,0.46678645365873833,0.3201796804881074,0.00014374439048581142,0.360143744390486
100900128,이화사거리(00020),종로구,26353,7.0,3.5,0.8222,37.57532007,127.0022813,19.9536,32.0246,0.0338,0.0196,0.0028,0.406,62.4,52.0,53.2,32.7,6.9,10.2,62.4,보통,초미세먼지,0.33461646731087874,0.2849802565218736,0.0009535775249984444,0.3665397607730545
100900129,삼청공원삼거리.옥호정터(00020),종로구,363,10.0,5.0,0.5407,37.58741852,126.9817445,18.4243,30.9137,0.0334,0.0176,0.0029,0.4203,58.6,50.9,52.8,29.3,7.2,10.5,58.6,보통,초미세먼지,0.2636106756596419,0.21226786534131464,1.2340547013851682e-05,0.2663328107915703
100900131,재동초등학교(00012),종로구,11171,13.5,6.75,0.6222,37.57879108,126.9853617,18.8997,30.9432,0.0335,0.0183,0.0028,0.4094,59.7,50.9,52.9,30.5,7.1,10.2,59.7,보통,초미세먼지,0.32084382482408413,0.25557129279168167,0.0005899429725062453,0.31751258978890096
100900133,카센터.사직터널앞(00020),종로구,14272,11.0,5.5,0.5778,37.57409862,126.9658895,18.6497,30.151,0.0337,0.0179,0.0029,0.4112,59.1,50.2,53.1,29.9,7.3,10.3,59.1,보통,초미세먼지,0.2854556203165334,0.23012787491924447,0.000570265437300619,0.28754674437984007
100900134,감람산기도원(00019),종로구,588,40.0,20.0,0.4,37.61594393,126.979873,17.6909,30.91,0.0332,0.0163,0.0029,0.4253,56.7,50.9,52.6,27.1,7.1,10.6,56.7,보통,초미세먼지,0.4667159562057417,0.32007393430861253,5.914744688989301e-05,0.36005914744689005
100900135,금융연수원(00019),종로구,349,10.0,5.0,0.5481,37.58587767,126.9818479,18.4959,30.9097,0.0334,0.0177,0.0029,0.4185,58.7,50.9,52.8,29.5,7.2,10.5,58.7,보통,초미세먼지,0.2660786379016569,0.21448832722285566,1.2027131860814883e-05,0.2692943654819883
100900137,충신시장(00018),종로구,72268,9.0,4.5,0.837,37.57497665,127.0054049,20.0349,32.0662,0.0339,0.0197,0.0028,0.4059,62.6,52.1,53.2,32.9,6.9,10.1,62.6,보통,초미세먼지,0.3600702647434098,0.30519798970770723,0.0034227242713845154,0.3870843176920918
100900138,사직공원.경복궁역입구(00018),종로구,94307,11.0,5.5,0.5778,37.57622069,126.9689039,18.6256,30.2166,0.0337,0.0179,0.0029,0.4125,59.1,50.2,53.1,29.8,7.3,10.3,59.1,보통,초미세먼지,0.2921646139557519,0.24019136537807223,0.0037682190719947784,0.2955975367469023
100900139,김창열.윤명로화실(00018),종로구,913,40.0,20.0,0.3926,37.616305,126.9783685,17.6593,30.9033,0.0331,0.0162,0.0029,0.426,56.6,50.9,52.6,27.0,7.1,10.6,56.6,보통,초미세먼지,0.46427406377095853,0.3178925771379192,9.01387568516954e-05,0.35712887652515024
100900140,박노수미술관(00018),종로구,1443,10.0,5.0,0.5037,37.58102656,126.9668945,18.2227,30.3542,0.0337,0.0173,0.003,0.4275,58.1,50.4,53.0,28.8,7.5,10.7,58.1,보통,초미세먼지,0.25135552845376036,0.2012925519398997,4.569620873192129e-05,0.2516266341445124
100900141,삼청동주민센터(00018),종로구,894,10.0,5.0,0.563,37.58468468,126.9822105,18.5603,30.9133,0.0334,0.0178,0.0029,0.4169,58.9,50.9,52.8,29.7,7.2,10.4,58.9,보통,초미세먼지,0.2710625945385608,0.21900129921524852,3.164142519752211e-05,0.275275113446273
100900142,상명대입구(00018),종로구,228,15.0,7.5,0.2815,37.60002101,126.9569583,17.0364,29.6898,0.0341,0.0153,0.0033,0.4756,55.1,49.5,53.4,25.4,8.2,11.9,55.1,보통,초미세먼지,0.21884627276408078,0.15947311284982485,6.052218913620006e-06,0.18761552731689696
100900143,대학로입구.이화사거리(00017),종로구,166780,9.0,4.5,0.8148,37.57598417,127.0025802,19.9071,32.0162,0.0338,0.0196,0.0028,0.4061,62.3,52.0,53.2,32.6,6.9,10.2,62.3,보통,초미세먼지,0.3605853963105737,0.3104151315028975,0.00768925192143281,0.38770247557268844
100900144,운현궁(00010),종로구,2407,15.0,7.5,0.6519,37.57527161,126.9869814,19.0589,30.924,0.0336,0.0185,0.0028,0.4063,60.1,50.9,53.0,30.9,7.1,10.2,60.1,보통,초미세먼지,0.3424857191896536,0.27085820841411,0.0001479636197376886,0.3359828630275844
100900145,배화여중고.매동초교(00017),종로구,32275,11.0,5.5,0.563,37.57675563,126.9678157,18.5514,30.2538,0.0337,0.0178,0.0029,0.4151,58.9,50.3,53.1,29.6,7.3,10.4,58.9,보통,초미세먼지,0.28202646362990397,0.22794710285226327,0.0012565432864373922,0.28343175635588475
100900147,감사원(00024),종로구,3247,12.0,6.0,0.5704,37.58626565,126.9855618,18.5859,31.0668,0.0333,0.0179,0.0029,0.4166,59.0,51.1,52.8,29.8,7.2,10.4,59.0,보통,초미세먼지,0.2903956389897429,0.23151938441054032,0.00013972019580464994,0.28847476678769157
100900148,청룡사.보문파크뷰자이아파트(00025),종로구,11919,9.0,4.5,0.6222,37.57978465,127.0171509,18.892,32.7211,0.0329,0.0184,0.0027,0.4022,59.7,52.7,52.4,30.7,6.6,10.1,59.7,보통,초미세먼지,0.2834065264826352,0.23316534527950827,0.00041963001159561584,0.29508783177916226
100900149,강북삼성병원(00027),종로구,4175,11.0,5.5,0.6519,37.56853152,126.9683377,19.0232,29.6229,0.034,0.0185,0.0029,0.3983,60.1,49.4,53.3,30.8,7.3,10.0,60.1,보통,초미세먼지,0.3093005897765319,0.25108051429442746,0.000188207429343674,0.31616070773183835
100900151,혜화초등학교(00025),종로구,27606,7.0,3.5,0.6074,37.58738929,126.9999909,18.8176,31.5799,0.0331,0.0182,0.0028,0.4133,59.5,51.6,52.6,30.4,7.0,10.3,59.5,보통,초미세먼지,0.2631165626999215,0.22069336256840083,0.0007379387254468452,0.28073987523990585
100900152,상명대입구(00025),종로구,46848,15.0,7.5,0.2815,37.59985447,126.9574023,17.0505,29.6994,0.0341,0.0153,0.0033,0.4751,55.1,49.5,53.4,25.5,8.2,11.9,55.1,보통,초미세먼지,0.22275422907644873,0.16533504731837673,0.0012435717178301317,0.19230507489173848
100900153,사우디대사관.북촌힐스(00023),종로구,2752,12.0,6.0,0.5852,37.58386331,126.9852486,18.6855,31.0425,0.0334,0.018,0.0029,0.4144,59.2,51.0,52.8,30.0,7.1,10.4,59.2,보통,초미세먼지,0.2952924168500519,0.23590158823804075,0.00012149591962809766,0.2943509002200623
100900154,서울시교육청(00026),종로구,17955,11.0,5.5,0.6296,37.569383,126.966702,18.9276,29.8065,0.0339,0.0184,0.0029,0.4014,59.8,49.7,53.3,30.6,7.3,10.0,59.8,보통,초미세먼지,0.3030483011590092,0.24614652581258795,0.0007818113050587414,0.3086579613908111
100900155,김종영미술관(00024),종로구,2738,40.0,20.0,0.4,37.61326379,126.9781123,17.6746,30.8787,0.0331,0.0163,0.0029,0.4281,56.7,50.9,52.6,27.2,7.2,10.7,56.7,보통,초미세먼지,0.4668961815612027,0.32034427234180396,0.00027541787344307326,0.36027541787344325
100900156,세검정교회(00024),종로구,8044,15.0,7.5,0.3037,37.599386,126.960029,17.1434,29.8301,0.034,0.0155,0.0032,0.4698,55.4,49.7,53.3,25.8,8.1,11.7,55.4,보통,초미세먼지,0.22690886220789885,0.16712255257110753,0.00023038388811028748,0.19729063464947866
100900157,안국선원.삼거리(00022),종로구,1756,12.0,6.0,0.5926,37.58274325,126.9852205,18.7344,31.0287,0.0334,0.0181,0.0029,0.4133,59.3,51.0,52.8,30.1,7.1,10.3,59.3,보통,초미세먼지,0.2976780622087818,0.23799857479465414,7.850560600049284e-05,0.29721367465053816
100900159,스위스대사관(00025),종로구,531,11.0,5.5,0.6148,37.570137,126.965696,18.8546,29.9235,0.0338,0.0183,0.0029,0.4037,59.6,49.9,53.2,30.4,7.3,10.1,59.6,보통,초미세먼지,0.2966494497431166,0.23951121165171185,2.2577207494457665e-05,0.3009793396917399
100900160,보현빌라(00023),종로구,3696,40.0,20.0,0.4,37.61538226,126.9784206,17.6659,30.8973,0.0331,0.0162,0.0029,0.4266,56.7,50.9,52.6,27.1,7.2,10.7,56.7,보통,초미세먼지,0.46697648662656627,0.3204647299398493,0.0003717839518793275,0.3603717839518795
100900161,하림각(00023),종로구,13237,15.0,7.5,0.3259,37.59768473,126.9629664,17.2785,29.9522,0.0339,0.0157,0.0032,0.4641,55.7,49.9,53.3,26.1,8.0,11.6,55.7,보통,초미세먼지,0.2347515767180547,0.17444217989189675,0.0004068538501179447,0.20670189206166564
100900162,북촌한옥마을입구.정세권활동터(00021),종로구,5815,12.0,6.0,0.6074,37.58128077,126.9851687,18.7956,31.0009,0.0334,0.0182,0.0029,0.4119,59.5,51.0,52.9,30.3,7.1,10.3,59.5,보통,초미세먼지,0.3029565825196811,0.24295339229804017,0.0002664708720758472,0.30354789902361734
100900163,숭인1동주민센터(00022),종로구,29177,9.0,4.5,0.6667,37.577415,127.0155607,19.1041,32.5654,0.0331,0.0187,0.0027,0.4027,60.3,52.6,52.5,31.1,6.7,10.1,60.3,보통,초미세먼지,0.2996680060344478,0.24866867571833845,0.0011006027155015348,0.3146016072413374
100900164,월암공원(00024),종로구,12001,11.0,5.5,0.6,37.571226,126.964693,18.7618,30.0451,0.0338,0.0181,0.0029,0.4069,59.4,50.0,53.1,30.2,7.3,10.2,59.4,보통,초미세먼지,0.29267265945312587,0.23650898917968882,0.0004979664292972998,0.29620719134375106
100900165,지구촌교회(00022),종로구,5666,40.0,20.0,0.4074,37.613106,126.979238,17.7005,30.8884,0.0331,0.0163,0.0029,0.4275,56.8,50.9,52.6,27.2,7.2,10.7,56.8,보통,초미세먼지,0.46961075915008554,0.32293465724364684,0.0005805026100496769,0.36353291098010265
100900166,석파정.서울미술관(00022),종로구,10970,15.0,7.5,0.3407,37.59476432,126.9637824,17.359,29.9453,0.0339,0.0158,0.0032,0.4629,55.9,49.9,53.3,26.3,8.0,11.6,55.9,보통,초미세먼지,0.23949981535516493,0.17860157488459924,0.0003525012359407808,0.21239977842619792
100900167,볼링장(00014),종로구,3420,15.0,7.5,0.637,37.579317,126.98817,18.9727,31.1508,0.0334,0.0184,0.0028,0.4095,59.9,51.2,52.9,30.7,7.1,10.2,59.9,보통,초미세먼지,0.3376323630661488,0.2665411371918157,0.00020545690522552105,0.33015883567937854
100900168,가회동주민센터(00020),종로구,7042,12.0,6.0,0.6148,37.57994265,126.9851294,18.8489,30.9653,0.0335,0.0182,0.0029,0.4106,59.6,51.0,52.9,30.4,7.1,10.3,59.6,보통,초미세먼지,0.30552857251338317,0.2453298958071117,0.00032663316933943684,0.30663428701605977
100900169,새마을금고(00028),종로구,26664,7.0,3.5,0.6,37.58784069,126.996569,18.7517,31.4623,0.0332,0.0181,0.0028,0.4142,59.4,51.5,52.6,30.2,7.0,10.4,59.4,보통,초미세먼지,0.2605684630440364,0.21835269456605466,0.0007040658588714758,0.27768215565284377
100900170,상명초등학교(00028),종로구,3763,15.0,7.5,0.2815,37.60090493,126.9568174,17.0269,29.7719,0.034,0.0153,0.0033,0.4733,55.1,49.6,53.3,25.5,8.2,11.8,55.1,보통,초미세먼지,0.21914259677875733,0.15991759887183965,9.988815689452666e-05,0.18797111613450884
100900171,서울국제고등학교(00027),종로구,3986,7.0,3.5,0.5852,37.58907429,126.9971408,18.6841,31.4431,0.0331,0.018,0.0028,0.4152,59.2,51.4,52.6,30.1,7.0,10.4,59.2,보통,초미세먼지,0.25372919115484516,0.21105674969523064,0.00010265198490380272,0.2694750293858142
100900172,통일부(00025),종로구,158,12.0,6.0,0.563,37.58753085,126.9861073,18.5435,31.087,0.0333,0.0178,0.0029,0.4175,58.9,51.1,52.7,29.6,7.2,10.4,58.9,보통,초미세먼지,0.2876675654556371,0.228908755590863,6.7105304445751585e-06,0.2852010785467645
100900173,종로센트레빌후문.e편한세상보문아파트(00026),종로구,1461,9.0,4.5,0.6222,37.581911,127.015935,18.8769,32.4936,0.0329,0.0184,0.0027,0.4049,59.7,52.5,52.4,30.7,6.7,10.1,59.7,보통,초미세먼지,0.2825298768233743,0.2318503707906169,5.143715470603194e-05,0.2940358521880492
100900174,국립민속박물관(00005),종로구,89816,10.0,5.0,0.5926,37.57925518,126.9795534,18.7335,30.6276,0.0335,0.0181,0.0029,0.4113,59.3,50.6,53.0,30.1,7.2,10.3,59.3,보통,초미세먼지,0.2883930907988101,0.23907111767969663,0.003346174785753732,0.2960717089585721
100900177,경복궁역(00014),종로구,152691,10.0,5.0,0.5852,37.57707221,126.9724733,18.6815,30.2745,0.0337,0.018,0.0029,0.4111,59.2,50.3,53.1,30.0,7.3,10.3,59.2,보통,초미세먼지,0.2911944988217408,0.24475471119557402,0.005617530724301678,0.2994333985860889
100900178,삼청공원(00001),종로구,72793,10.0,5.0,0.5333,37.58822768,126.9816469,18.3861,30.9117,0.0333,0.0175,0.0029,0.4212,58.5,50.9,52.8,29.2,7.2,10.5,58.5,보통,초미세먼지,0.2672130386925397,0.2191528913721429,0.002440771032571417,0.27065564643104767
100900179,법련사(00015),종로구,52297,10.0,5.0,0.6148,37.57658798,126.9796651,18.8547,30.4495,0.0336,0.0183,0.0029,0.4072,59.6,50.4,53.0,30.4,7.2,10.2,59.6,보통,초미세먼지,0.29265544001480337,0.24102019705924205,0.0020214350630673728,0.301186528017764
100900180,홍지파크(00017),종로구,536,15.0,7.5,0.2741,37.60124243,126.9557163,16.9914,29.7613,0.034,0.0152,0.0033,0.4741,55.0,49.6,53.3,25.4,8.2,11.9,55.0,보통,초미세먼지,0.21640295529160325,0.15728961812259004,1.3853601742256683e-05,0.18468354634992393
100900181,부암동주민센터.무계원(00021),종로구,6138,15.0,7.5,0.3481,37.59293534,126.9637682,17.4016,29.9409,0.034,0.0159,0.0032,0.4621,56.0,49.9,53.3,26.4,8.0,11.6,56.0,보통,초미세먼지,0.2415639051494539,0.18021622809455115,0.00020152128641673364,0.2148766861793447
100900182,구기터널입구(00006),종로구,11563,15.0,7.5,0.2593,37.60820461,126.9567769,16.9068,30.4544,0.0331,0.0154,0.0031,0.4541,54.8,50.5,52.6,25.6,7.6,11.4,54.8,보통,초미세먼지,0.21238903019581293,0.15423169344186755,0.0002827058235730126,0.17986683623497554
100900184,청구빌라(00010),종로구,3244,15.0,7.5,0.2741,37.60461026,126.956984,16.9829,30.1541,0.0335,0.0154,0.0031,0.4622,55.0,50.2,52.9,25.6,7.9,11.6,55.0,보통,초미세먼지,0.21662995541373734,0.1576301183057912,8.384530606694157e-05,0.18495594649648486
100900186,독립문역3번출구(00006),종로구,153983,11.0,5.5,0.5481,37.57287848,126.9597453,18.468,30.3122,0.0336,0.0177,0.0029,0.4166,58.7,50.3,53.0,29.5,7.4,10.4,58.7,보통,초미세먼지,0.28729045600749853,0.23880605438161806,0.005837166847725628,0.28974854720899823
100900187,성결교신대원총회본부(00011),종로구,4113,11.0,5.5,0.563,37.57397631,126.9634446,18.5574,30.2194,0.0337,0.0178,0.0029,0.4141,58.9,50.2,53.1,29.7,7.3,10.4,58.9,보통,초미세먼지,0.27966576295060525,0.22440605183331525,0.0001601289709408829,0.2805989155407263
100900188,적십자병원후문앞(00002),종로구,4077,11.0,5.5,0.6296,37.56790794,126.9649058,18.9041,29.8725,0.0339,0.0183,0.0029,0.4018,59.8,49.8,53.2,30.6,7.3,10.0,59.8,보통,초미세먼지,0.3018849674459453,0.24440152524299197,0.00017752407077273677,0.30726196093513436
100900189,안국역2번출구앞(00011),종로구,268818,13.5,6.75,0.637,37.57717282,126.9861183,18.9781,30.9358,0.0335,0.0184,0.0028,0.4078,59.9,50.9,52.9,30.7,7.1,10.2,59.9,보통,초미세먼지,0.347379548595746,0.2924119154862116,0.01453434588129319,0.34935545831489523
100900191,종로5가역.광장시장(00017),종로구,217708,7.0,3.5,0.8148,37.57077247,127.000039,19.9366,31.9851,0.0338,0.0196,0.0028,0.4058,62.3,52.0,53.2,32.7,6.9,10.1,62.3,보통,초미세먼지,0.3481878072731707,0.30681874794679304,0.007806745813632768,0.38282536872780487
100900192,동대문종합시장(00014),종로구,53676,9.0,4.5,0.8593,37.571212,127.00496,20.1551,32.0813,0.034,0.0199,0.0028,0.4058,62.9,52.1,53.3,33.1,6.9,10.1,62.9,보통,초미세먼지,0.3659191838676867,0.3095269239496781,0.002609669853134777,0.394103020641224
100900197,명륜새마을금고(00005),종로구,19934,18.0,9.0,0.6,37.587785,126.996798,18.7583,31.471,0.0332,0.0181,0.0028,0.4141,59.4,51.5,52.6,30.2,7.0,10.4,59.4,보통,초미세먼지,0.35167098243523687,0.2725064736528553,0.0013534957725418542,0.33200517892228426
100900198,성대입구(00014),종로구,5595,9.0,4.5,0.6667,37.58335331,126.9992849,19.1141,31.6917,0.0333,0.0186,0.0028,0.4101,60.3,51.7,52.8,31.0,7.0,10.3,60.3,보통,초미세먼지,0.2976912272751544,0.24570350757939827,0.0002110522738194841,0.31222947273018525
100900199,성대입구(00018),종로구,59094,18.0,9.0,0.6667,37.5832668,126.998853,19.1125,31.6784,0.0333,0.0186,0.0028,0.4101,60.3,51.7,52.8,31.0,7.0,10.3,60.3,보통,초미세먼지,0.3771758208992508,0.2974303980155428,0.004458238809325682,0.36261098507910094
100900200,혜화동로터리(00024),종로구,149459,7.0,3.5,0.6296,37.58591961,127.0010032,18.9313,31.6629,0.0332,0.0184,0.0028,0.4119,59.8,51.7,52.7,30.6,7.0,10.3,59.8,보통,초미세먼지,0.2807383888231369,0.2426816573087794,0.004141369336975878,0.3018860665877643
100900201,국민생활관(00026),종로구,17215,7.0,3.5,0.5852,37.5896276,126.9993138,18.6676,31.4819,0.0331,0.018,0.0028,0.4155,59.2,51.5,52.6,30.1,7.0,10.4,59.2,보통,초미세먼지,0.254838121958284,0.2127201459003888,0.0004433401706269352,0.27080574634994076
100900202,서울성곽.성대후문(00002),종로구,6783,12.0,6.0,0.563,37.5892577,126.9896321,18.5495,31.2032,0.0332,0.0178,0.0028,0.4173,58.9,51.2,52.7,29.7,7.1,10.4,58.9,보통,초미세먼지,0.2882229110276971,0.229741773948953,0.000288085620288312,0.28586749323323657
100900203,성대후문.와룡공원(00026),종로구,296,12.0,6.0,0.563,37.58915228,126.989734,18.5567,31.2081,0.0332,0.0178,0.0028,0.4171,58.9,51.2,52.7,29.7,7.1,10.4,58.9,보통,초미세먼지,0.2876791334086853,0.22892610752043527,1.257162665565979e-05,0.28521496009042235
100900204,성균관대학교(00001),종로구,62958,12.0,6.0,0.5704,37.58846387,126.9900036,18.5958,31.2267,0.0332,0.0179,0.0028,0.4165,59.0,51.2,52.7,29.8,7.1,10.4,59.0,보통,초미세먼지,0.29540095815250145,0.23902736315467807,0.0027091173660206812,0.29448114978300177
100900205,동묘앞역8번출구(00012),종로구,43033,9.0,4.5,0.7259,37.57269435,127.0142454,19.4422,32.3312,0.0333,0.0191,0.0027,0.4038,61.1,52.3,52.8,31.8,6.8,10.1,61.1,보통,초미세먼지,0.320582582000837,0.2681886878160703,0.0017675639458421973,0.33969909840100443
100900206,종로센트레빌아파트(00007),종로구,33342,9.0,4.5,0.637,37.58035344,127.0156927,18.9588,32.5386,0.0329,0.0185,0.0027,0.4038,59.9,52.5,52.5,30.8,6.7,10.1,59.9,보통,초미세먼지,0.2901405970596853,0.24030348818212055,0.0012018147603560217,0.30316871647162236
100900207,창신초등학교(00010),종로구,56941,9.0,4.5,0.6741,37.5769032,127.0153886,19.1442,32.5414,0.0331,0.0187,0.0027,0.4028,60.4,52.5,52.6,31.2,6.7,10.1,60.4,보통,초미세먼지,0.30446447986901876,0.2543819049887133,0.0021717704391689555,0.3203573758428225
100900210,창신쌍용1단지.종로센트레빌아파트(00024),종로구,29764,9.0,4.5,0.637,37.58032282,127.0155693,18.9677,32.5272,0.033,0.0185,0.0027,0.4039,59.9,52.5,52.5,30.8,6.7,10.1,59.9,보통,초미세먼지,0.2898406685378995,0.2398535953994419,0.001072845495988142,0.30280880224547946
100900211,공평.종각(00007),종로구,108056,13.5,6.75,0.6593,37.57159379,126.9832427,19.0627,30.2305,0.0338,0.0186,0.0029,0.4012,60.2,50.2,53.2,30.9,7.2,10.0,60.2,보통,초미세먼지,0.3413109613079821,0.27886459011012116,0.006046131487892758,0.3420731535695785
100900213,조계사(00016),종로구,36546,12.0,6.0,0.6444,37.57360211,126.9831364,19.0115,30.4266,0.0337,0.0185,0.0029,0.4035,60.0,50.4,53.1,30.8,7.2,10.1,60.0,보통,초미세먼지,0.3178783105546647,0.2579285769431081,0.001776827529112892,0.32145397266559766
100900215,교남동주민센터(00022),종로구,3364,11.0,5.5,0.563,37.57218198,126.9613278,18.5709,30.2426,0.0337,0.0178,0.0029,0.4131,58.9,50.2,53.1,29.7,7.3,10.3,58.9,보통,초미세먼지,0.2796029774663074,0.2243118736068685,0.00013096860156701435,0.2805235729595689
100900217,종로1.2.3.4가동주민센터(00007),종로구,46331,9.0,4.5,0.6963,37.57438371,126.9911314,19.26,31.3095,0.0335,0.0188,0.0028,0.4063,60.7,51.3,52.9,31.3,7.0,10.2,60.7,보통,초미세먼지,0.310982496103663,0.25971448489623516,0.001825353415635129,0.32817899532439565
100900218,성균관대정문(00019),종로구,14238,18.0,9.0,0.6296,37.584957,126.99662,18.9399,31.544,0.0333,0.0184,0.0028,0.4118,59.8,51.5,52.7,30.6,7.0,10.3,59.8,보통,초미세먼지,0.3610700541917619,0.2806791553617169,0.001014484334602539,0.3432840650301143
100900219,600주년기념관(00020),종로구,3023,18.0,9.0,0.5926,37.587329,126.993942,18.7378,31.3872,0.0332,0.0181,0.0028,0.4143,59.3,51.4,52.7,30.2,7.0,10.4,59.3,보통,초미세먼지,0.34778426942988366,0.268157885626307,0.00020272418588225213,0.32734112331586046
100900220,성균관대운동장(00001),종로구,127268,18.0,9.0,0.5852,37.587863,126.99237,18.677,31.3207,0.0332,0.018,0.0028,0.4152,59.2,51.3,52.7,30.0,7.1,10.4,59.2,보통,초미세먼지,0.35573006352939135,0.28155805825704994,0.008427984756120313,0.33687607623526966
100900221,학생회관(00002),종로구,48754,18.0,9.0,0.5926,37.58742039,126.9936746,18.7274,31.3757,0.0332,0.0181,0.0028,0.4144,59.3,51.4,52.7,30.1,7.0,10.4,59.3,보통,초미세먼지,0.35161770465341213,0.2739080384615997,0.003269472364705035,0.3319412455840946
101000001,남대문세무서(00024),중구,976071,10.8333333333333,5.41666666666666,0.6667,37.56498481,126.9875299,19.1296,30.4158,0.0337,0.0187,0.0029,0.4002,60.3,50.4,53.1,31.1,7.1,10.0,60.3,보통,초미세먼지,0.3943198804326313,0.37689648731561365,0.04431910190100861,0.4190171898524909
101000002,국가인권위.안중근활동터(00027),중구,1360198,10.6666666666666,5.33333333333333,0.6667,37.56435047,126.9878515,19.1259,30.4606,0.0336,0.0187,0.0029,0.4004,60.3,50.5,53.0,31.2,7.1,10.0,60.3,보통,초미세먼지,0.42513072415637554,0.42436275290123,0.06081046029080767,0.4568235356543173
101000003,서울역버스환승센터(00020),중구,155624,8.0,4.0,0.6444,37.55514602,126.9722571,18.9846,30.1535,0.0336,0.0185,0.0029,0.3987,60.0,50.2,53.0,30.9,7.2,10.0,60.0,보통,초미세먼지,0.29452677948997463,0.252901280346073,0.005044181896617318,0.31343213538796955
101000004,서울역버스환승센터(00035),중구,1920066,10.9523809523809,5.47619047619047,0.6444,37.55540298,126.9725925,18.9957,30.1089,0.0336,0.0185,0.0029,0.3984,60.0,50.1,53.0,30.9,7.2,10.0,60.0,보통,초미세먼지,0.4670356222979344,0.48952168741515567,0.08520182100337824,0.5056808419956166
101000005,서울역버스환승센터(00033),중구,1009680,14.5384615384615,7.26923076923076,0.6444,37.55538899,126.9727238,18.9964,30.1092,0.0336,0.0185,0.0029,0.3984,60.0,50.1,53.0,30.9,7.2,10.0,60.0,보통,초미세먼지,0.42060584092300773,0.39298141095716127,0.059473895298689045,0.4320347014153017
101000006,서울역버스환승센터(00036),중구,1720470,11.6153846153846,5.8076923076923,0.6444,37.55547941,126.9728548,19.0005,30.0934,0.0336,0.0186,0.0029,0.3983,60.0,50.1,53.0,30.9,7.2,10.0,60.0,보통,초미세먼지,0.45582936907943455,0.4677397801148783,0.08096640891474688,0.4889183198183984
101000007,서울역버스환승센터.강우규의거터(00044),중구,741091,11.1428571428571,5.57142857142857,0.6444,37.555411,126.972926,18.9989,30.1031,0.0336,0.0186,0.0029,0.3983,60.0,50.1,53.0,30.9,7.2,10.0,60.0,보통,초미세먼지,0.36979446413890454,0.3422313787480393,0.03345740705434135,0.3880390712523998
101000008,숭례문(00043),중구,650982,12.2777777777777,6.13888888888889,0.6667,37.55863886,126.9737784,19.1146,29.5813,0.034,0.0187,0.0029,0.3951,60.3,49.3,53.3,31.1,7.3,9.9,60.3,보통,초미세먼지,0.37910608929224726,0.34324246727170415,0.03349933485667069,0.3935384182618078
101000009,만리동고개(00040),중구,434343,13.8,6.9,0.6074,37.55178706,126.9626582,18.7912,30.8321,0.0332,0.0183,0.0028,0.4023,59.5,50.8,52.6,30.5,7.1,10.1,59.5,보통,초미세먼지,0.3538782621126971,0.3058359116875641,0.022889204073696587,0.3556539145352365
101000010,손기정체육공원입구(00003),중구,226904,12.8333333333333,6.41666666666666,0.6222,37.55444595,126.9662339,18.8838,30.4452,0.0334,0.0184,0.0029,0.4007,59.7,50.4,52.8,30.7,7.1,10.0,59.7,보통,초미세먼지,0.333372249086977,0.27936392918602104,0.011391104566369362,0.3358800322377058
101000011,서울의료보건고등학교.서울역서부(00002),중구,510615,12.8333333333333,6.41666666666666,0.637,37.555848,126.968902,18.9607,30.1613,0.0336,0.0185,0.0029,0.3991,59.9,50.2,53.0,30.8,7.2,10.0,59.9,보통,초미세먼지,0.3620928071213063,0.31948180327455217,0.026244386224669125,0.370344701878901
101000012,서울역서부(00001),중구,308956,8.0,4.0,0.637,37.556235,126.969153,18.9753,30.0999,0.0336,0.0185,0.0029,0.3987,59.9,50.1,53.0,30.8,7.2,10.0,59.9,보통,초미세먼지,0.3049108130845024,0.2699588122193462,0.009898969763876194,0.32589297570140296
101000013,서울역서부(00022),중구,285874,13.1428571428571,6.57142857142857,0.637,37.555855,126.969293,18.9673,30.1433,0.0336,0.0185,0.0029,0.3989,59.9,50.1,53.0,30.8,7.2,10.0,59.9,보통,초미세먼지,0.3458330900557149,0.29277079910473625,0.015047620255774254,0.34928542235257215
101000014,중림동교차로(00016),중구,121158,13.0,6.5,0.6519,37.55838363,126.9691354,19.0333,29.8296,0.0338,0.0186,0.0029,0.3972,60.1,49.7,53.2,30.9,7.2,9.9,60.1,보통,초미세먼지,0.33577344377245083,0.2757897952883057,0.006454803797876345,0.337928132526941
101000015,종근당.충정로역(00038),중구,238037,16.25,8.125,0.6296,37.55964888,126.9645408,18.9357,30.0582,0.0337,0.0184,0.0029,0.3998,59.8,50.1,53.1,30.7,7.2,10.0,59.8,보통,초미세먼지,0.3652468391499693,0.30006933279902803,0.015311639129955437,0.3570462069799632
101000016,한국경제신문사.서소문역사공원(00033),중구,117879,16.25,8.125,0.6519,37.56021115,126.967868,19.0441,29.7324,0.0339,0.0186,0.0029,0.397,60.1,49.6,53.3,30.9,7.3,9.9,60.1,보통,초미세먼지,0.3625819124822694,0.2916274983530337,0.007850140074219879,0.35384829497872333
101000017,한국경제신문사.서소문역사공원(00042),중구,172658,13.8,6.9,0.6519,37.56062347,126.9681135,19.0592,29.6755,0.034,0.0186,0.0029,0.3966,60.1,49.5,53.3,31.0,7.3,9.9,60.1,보통,초미세먼지,0.3467571363955084,0.28626533422289224,0.009764576005042068,0.3471085636746102
101000018,경찰청.동북아역사재단(00009),중구,350712,13.8571428571428,6.92857142857142,0.6667,37.56304949,126.9691267,19.1252,29.4248,0.0341,0.0186,0.0029,0.3948,60.3,49.0,53.4,31.1,7.3,9.9,60.3,보통,초미세먼지,0.367097107984195,0.31338375721438794,0.020369096019434995,0.37123081529531987
101000020,농협은행.유관순활동터(00010),중구,371527,10.8333333333333,5.41666666666666,0.6593,37.56490628,126.9677868,19.0794,29.5262,0.0341,0.0186,0.0029,0.3962,60.2,49.2,53.4,31.0,7.3,9.9,60.2,보통,초미세먼지,0.3411743924014159,0.29865973675027196,0.016681973209210613,0.35524260421503245
101000021,염천교(00039),중구,221927,16.6,8.3,0.6741,37.559869,126.973113,19.1476,29.4227,0.0341,0.0187,0.0029,0.3941,60.4,49.0,53.4,31.1,7.3,9.9,60.4,보통,초미세먼지,0.3816278878516943,0.3131270169627267,0.01561221590185406,0.3749534654220332
101000022,숭례문(00061),중구,37956,20.0,10.0,0.6667,37.558401,126.973359,19.1027,29.6268,0.034,0.0186,0.0029,0.3955,60.3,49.4,53.3,31.1,7.3,9.9,60.3,보통,초미세먼지,0.3920705789316224,0.3047725350641003,0.0031816900427335277,0.37048469471794687
101000023,숭례문.한국일보(00032),중구,254551,11.25,5.625,0.6667,37.55877131,126.9737376,19.1187,29.5619,0.034,0.0187,0.0029,0.395,60.3,49.3,53.3,31.1,7.3,9.9,60.3,보통,초미세먼지,0.33731014987708213,0.28825689148228983,0.012002584305858691,0.34852217985249856
101000025,후암삼거리(00049),중구,61754,10.0,5.0,0.637,37.553408,126.975993,18.9508,30.4334,0.0333,0.0185,0.0029,0.4,59.9,50.4,52.8,30.9,7.1,10.0,59.9,보통,초미세먼지,0.3008555875089988,0.24887597385609084,0.0024732525780305705,0.31102670501079865
101000026,숭례문(00035),중구,71880,5.0,2.5,0.6667,37.55876338,126.9743627,19.1231,29.5531,0.034,0.0187,0.0029,0.3949,60.3,49.3,53.3,31.1,7.3,9.9,60.3,보통,초미세먼지,0.26991428356355657,0.2340380920120015,0.0015063486686669166,0.2988971402762679
101000027,숭례문(00037),중구,522313,14.4210526315789,7.21052631578947,0.6667,37.55841953,126.9740437,19.1092,29.6107,0.034,0.0186,0.0029,0.3953,60.3,49.4,53.3,31.1,7.3,9.9,60.3,보통,초미세먼지,0.3861809380684309,0.33778017903247093,0.03157004728005943,0.39131186252422234
101000028,숭례문(00030),중구,478159,16.2222222222222,8.11111111111111,0.6593,37.55800065,126.9736279,19.0916,29.6831,0.0339,0.0186,0.0029,0.3958,60.2,49.5,53.3,31.1,7.3,9.9,60.2,보통,초미세먼지,0.39502030683371436,0.33901194173205296,0.03214975097300712,0.3929132570893462
101000029,남대문시장악세사리전문상가(00013),중구,61625,10.6666666666666,5.33333333333333,0.6667,37.5588724,126.9759977,19.1322,29.5398,0.034,0.0187,0.0029,0.3947,60.3,49.2,53.4,31.1,7.3,9.9,60.3,보통,초미세먼지,0.3162768727531032,0.2610819757963215,0.002755072875729139,0.3261989139703905
101000030,숭례문남산방향(00049),중구,288664,12.0,6.0,0.6667,37.55855816,126.9756721,19.1212,29.5856,0.034,0.0187,0.0029,0.3951,60.3,49.3,53.3,31.1,7.3,9.9,60.3,보통,초미세먼지,0.34641969757514746,0.29629621302938786,0.014518485211755151,0.355703637090177
101000031,남대문시장.신세계앞(00045),중구,149074,9.0,4.5,0.6741,37.56119108,126.9800598,19.166,29.4483,0.0341,0.0187,0.0029,0.3941,60.4,49.1,53.4,31.2,7.3,9.9,60.4,보통,초미세먼지,0.31218759739212887,0.2659665812733785,0.005685788912184065,0.3296251168705547
101000032,북창동.남대문시장(00038),중구,1261452,11.8,5.9,0.6815,37.561273,126.978555,19.1876,29.3101,0.0342,0.0187,0.0029,0.3931,60.5,48.9,53.5,31.2,7.3,9.8,60.5,보통,초미세먼지,0.4312359830195489,0.4220576782330271,0.063774269111439,0.4584831796234587
101000033,소공동주민센터(00046),중구,711206,14.8333333333333,7.41666666666666,0.6889,37.56219717,126.9764437,19.2241,29.1165,0.0343,0.0188,0.0029,0.3918,60.6,48.5,53.6,31.3,7.3,9.8,60.6,보통,초미세먼지,0.41285811476677986,0.370259394372392,0.045690093038289414,0.4212630710534693
101000034,삼성본관앞(00010),중구,587210,13.4545454545454,6.72727272727272,0.6889,37.56205175,126.9759075,19.2225,29.1212,0.0343,0.0188,0.0029,0.3918,60.6,48.5,53.6,31.3,7.3,9.8,60.6,보통,초미세먼지,0.390974158485839,0.3477743690418898,0.03421766320911624,0.40189626291027963
101000035,시청역8번출구(00052),중구,255325,14.4545454545454,7.22727272727272,0.6889,37.56276421,126.9761487,19.2349,29.0664,0.0343,0.0188,0.0029,0.3914,60.6,48.4,53.6,31.3,7.3,9.8,60.6,보통,초미세먼지,0.3714869838670009,0.3110436071136327,0.0159840067409922,0.37351165336767395
101000036,시청서소문2청사(00033),중구,278331,10.0,5.0,0.6889,37.56319014,126.9746522,19.2387,29.0465,0.0343,0.0188,0.0029,0.3912,60.6,48.4,53.6,31.3,7.3,9.8,60.6,보통,초미세먼지,0.33629426687496816,0.29166362253467437,0.012054507021202638,0.3535531202499618
101000037,서소문(00046),중구,334847,7.0,3.5,0.6889,37.563722,126.975314,19.2465,29.0146,0.0344,0.0188,0.0029,0.391,60.6,48.4,53.6,31.3,7.4,9.8,60.6,보통,초미세먼지,0.31603176277693695,0.2837698663876276,0.010151549266053899,0.3442381153323244
101000038,시청.서소문청사(00034),중구,383533,10.0,5.0,0.6889,37.56352484,126.9749539,19.2438,29.0257,0.0344,0.0188,0.0029,0.3911,60.6,48.4,53.6,31.3,7.4,9.8,60.6,보통,초미세먼지,0.34511290308204084,0.3048915768452835,0.016610802394856884,0.3641354836984491
101000039,서울신문사(00015),중구,716342,12.4444444444444,6.22222222222222,0.6741,37.56836329,126.9773647,19.1792,29.2997,0.0342,0.0187,0.0029,0.3936,60.4,48.8,53.5,31.2,7.3,9.8,60.4,보통,초미세먼지,0.3884429647896191,0.35451629903628057,0.03777828567901207,0.4039093355253207
101000040,우리은행종로지점(00032),중구,844829,12.7368421052631,6.36842105263157,0.6667,37.56783904,126.9828659,19.1319,29.79,0.034,0.0187,0.0029,0.397,60.3,49.6,53.3,31.1,7.2,9.9,60.3,보통,초미세먼지,0.3991809948802276,0.36991184319753456,0.045100152818306906,0.4153329833299575
101000041,롯데백화점(00037),중구,2033673,13.6470588235294,6.8235294117647,0.6741,37.56451,126.982205,19.1643,29.5332,0.0341,0.0187,0.0029,0.3948,60.4,49.2,53.4,31.2,7.3,9.9,60.4,보통,초미세먼지,0.5088910060423532,0.5261687530722444,0.1176160267950741,0.5424339131331768
101000042,해운센터.롯데영플라자(00021),중구,152581,16.0,8.0,0.6741,37.56289078,126.9815478,19.1674,29.4839,0.0341,0.0187,0.0029,0.3944,60.4,49.1,53.4,31.2,7.3,9.9,60.4,보통,초미세먼지,0.37081490761923047,0.30140754661403085,0.010345863820175296,0.36497788914307655
101000043,명동.롯데영프라자(00046),중구,2106302,12.1923076923076,6.09615384615384,0.6741,37.562885,126.982008,19.1593,29.5475,0.0341,0.0187,0.0029,0.3948,60.4,49.2,53.4,31.2,7.3,9.9,60.4,보통,초미세먼지,0.5028562601078043,0.5280272676545841,0.10883106332745492,0.5424659736678268
101000045,신세계백화점(00021),중구,361765,18.25,9.125,0.6741,37.561128,126.981432,19.1439,29.6079,0.034,0.0187,0.0029,0.3951,60.4,49.3,53.3,31.2,7.3,9.9,60.4,보통,초미세먼지,0.40709991262237016,0.33896005411874036,0.02797922845264536,0.39726989514684413
101000046,남대문시장.회현역(00031),중구,653145,15.3,7.65,0.6667,37.55826752,126.9777651,19.1077,29.694,0.0339,0.0187,0.0029,0.3957,60.3,49.5,53.3,31.1,7.3,9.9,60.3,보통,초미세먼지,0.40447258956760085,0.35862555101806787,0.041884031019214625,0.408867107481121
101000047,남대문시장.회현역(00041),중구,411939,14.0,7.0,0.6667,37.55849203,126.9784645,19.1108,29.6948,0.0339,0.0187,0.0029,0.3957,60.3,49.5,53.3,31.1,7.3,9.9,60.3,보통,초미세먼지,0.3734199831694666,0.3217966414208665,0.024171765996404377,0.3781039798033599
101000048,남산3호터널(00022),중구,211344,17.25,8.625,0.6593,37.558312,126.98274,19.0641,30.0951,0.0337,0.0186,0.0029,0.3981,60.2,50.1,53.0,31.1,7.2,10.0,60.2,보통,초미세먼지,0.3812191550358211,0.3106018807018798,0.01511033019045462,0.3712129860429854
